city,state,lat,lng
* cidade,PR,-25.57174841548848,-49.33437407992388
...arraial do cabo,RJ,-22.969370031652065,-42.02983437523808
4o. centenario,PR,-24.2718596772122,-53.0694333134515
4º centenario,PR,-24.279800992315977,-53.07472322654436
abadia de goias,GO,-16.76706286540188,-49.438089420466014
abadia dos dourados,MG,-18.474476487136112,-47.4078365252738
abadiania,GO,-16.19381961165601,-48.70844192109156
abadiânia,GO,-16.193554941919746,-48.71214266034082
abaete,MG,-19.15854932136434,-45.44627527095028
abaetetuba,PA,-1.7230241817101852,-48.88106537387817
abaeté,MG,-19.15638951920697,-45.44643294595805
abaiara,CE,-7.358247021378397,-39.04581684412134
abaira,BA,-13.250394953318787,-41.66353606594831
abare,BA,-8.689967452179038,-39.16414406899501
abaré,BA,-8.723652728356718,-39.11459425901205
abatia,PR,-23.304513187420707,-50.31116611469426
abatiá,PR,-23.30473194502101,-50.30671144373594
abaíra,BA,-13.251101562812092,-41.66465955798664
abdon batista,SC,-27.608818306014133,-51.02488531826943
abel figueiredo,PA,-4.9539013311341975,-48.39812266389258
abelardo luz,SC,-26.565375356044346,-52.32532803924757
abrantes,BA,-12.83017402246026,-38.26510695136311
abre campo,MG,-20.297406091839964,-42.47567909579939
abreu e lima,PE,-7.911567810572414,-34.91298599014977
abreulândia,TO,-9.622442657403376,-49.149720300911845
abreus,MG,-18.97774637560997,-48.26923798459092
acaiaca,MG,-20.36291378049634,-43.14402222191236
acailandia,MA,-4.944747265765335,-47.48256492492615
acajutiba,BA,-11.663495576693935,-38.023852706144226
acara,PA,-1.95913141173418,-48.196307061033416
acarape,CE,-4.224106437897478,-38.70598562793475
acarau,CE,-2.8903818750514922,-40.113084822473105
acaraú,CE,-2.8882738147063645,-40.07931114644638
acari,RN,-6.436124915575116,-36.640335529330684
acará,PA,-1.960475172264062,-48.19888368109973
acaua,PI,-8.21782599334695,-41.0820652414531
acauã,PI,-8.221232314232498,-41.07740644501662
acegua,RS,-31.774987418302466,-54.15690689012052
aceguá,RS,-31.7245094621224,-54.11720555627117
acioli,ES,-19.655909222582128,-40.46336507540551
acopiara,CE,-6.094117746073023,-39.44897848740864
acorizal,MT,-15.199589388505151,-56.36694095815544
acrelandia,AC,-10.05360609871141,-67.0321262765574
acrelândia,AC,-10.076679176010265,-67.05356437120881
acreuna,GO,-17.39807627005333,-50.3725163925381
acreúna,GO,-17.40016794210632,-50.376586471645616
acu,RN,-5.5782561625611145,-36.91491532275635
acucena,MG,-19.129221349636005,-42.64363789453825
acupe,BA,-12.661775303973426,-38.751328908632885
adamantina,SP,-21.6957428787417,-51.04636183397665
adao colares,MG,-0.9331793302279578,-48.2798854881097
adelandia,GO,-16.416262953362153,-50.167602152545605
adhemar de barros,PR,-22.69031468157406,-52.73463407849236
adolfo,SP,-21.234456456293216,-49.64271564526813
adrianopolis,PR,-24.668314396331997,-48.97598733352184
adrianópolis,PR,-24.659640543997213,-48.99171509845514
adustina,BA,-10.536616901316743,-38.11492053385937
afogados da ingazeira,PE,-7.759829833939791,-37.560205074371495
afonso arinos,RJ,-22.01222443747746,-43.33712310426437
afonso bezerra,RN,-5.495639317772121,-36.53499953473234
afonso claudio,ES,-20.075987175514054,-41.12398801850307
afonso cláudio,ES,-20.082490603465917,-41.12193874559757
afonso cunha,MA,-4.131088397083896,-43.32399745717131
afranio,PE,-8.532137464656772,-41.025149765576884
afrânio,PE,-8.515681257243429,-41.00847132643635
afua,PA,-0.156769821546983,-50.39281388731495
afuá,PA,-0.15869544987536438,-50.389617235803755
agisse,SP,-23.537328737497397,-48.54493393688767
agrestina,PE,-8.45504693653698,-35.94651434518298
agricolandia,PI,-5.79671499841993,-42.66518295491898
agricolândia,PI,-5.799059562491884,-42.66179726557431
agrolandia,SC,-27.407760672796563,-49.82991378792887
agrolândia,SC,-27.411103305359138,-49.83103964849232
agronomica,SC,-27.268238165766785,-49.713448801834254
agronômica,SC,-27.269075169963724,-49.70950363604792
agua azul do norte,PA,-6.804580607109001,-50.48391969202447
agua boa,MG,-17.983584833880307,-42.39164101018776
agua boa,MT,-14.062779693881483,-52.20602230549147
agua branca,AL,-9.262055423096342,-37.9351265832074
agua branca,PB,-7.515419976964854,-37.64009858240075
agua branca,PI,-5.892044614430678,-42.63373817214237
agua branca de minas,MG,-16.192079815993335,-41.72616772679282
agua clara,MS,-20.44129869474028,-52.87690731857362
agua comprida,MG,-20.05738309692623,-48.10875095126893
agua doce,SC,-26.997539482686065,-51.55508230054839
agua doce do maranhao,MA,-2.8783590341287977,-42.13425890269593
agua doce do norte,ES,-18.541736433301377,-40.9840576876171
agua fria,BA,-11.831734131665996,-38.75602759065029
agua fria de goias,GO,-14.972415223806218,-47.78532009005647
agua limpa,GO,-18.076322394559124,-48.76160432422692
agua nova,RN,-6.205206243591784,-38.291460507110884
agua preta,PE,-8.70575416352258,-35.51654982122744
agua santa,RS,-28.183372036296035,-52.03985047911124
agua vermelha,SP,-21.893562,-47.89098450000001
aguai,SP,-22.057066284995376,-46.97618165238234
aguanil,MG,-20.94218324682893,-45.38743214882451
aguas belas,PE,-9.107676114006257,-37.116796596556135
aguas claras,RS,-28.00030351378292,-49.17546213298624
aguas da prata,SP,-21.939687492514494,-46.713331769849546
aguas de chapeco,SC,-27.074925605515592,-52.98524818513099
aguas de lindoia,SP,-22.477061355857693,-46.6190030778751
aguas de santa barbara,SP,-22.87611866084379,-49.239805232619844
aguas de sao pedro,SP,-22.60218529739545,-47.87191829441937
aguas ferreas,MG,-20.093397450052095,-42.62548261599632
aguas formosas,MG,-17.08323622056864,-40.938038472751764
aguas frias,SC,-26.881351672420998,-52.859710992167756
aguas lindas de goias,GO,-15.72491838980515,-48.277047930877984
aguas mornas,SC,-27.70103345965437,-48.83820955993601
aguas vermelhas,MG,-15.64515303095306,-41.48340835828967
aguaí,SP,-22.056483503638535,-46.975808535721654
agudo,RS,-29.643273595312962,-53.2459255611156
agudos,SP,-22.47071707786102,-48.9862934145237
agudos do sul,PR,-25.987456386623908,-49.334836277897196
aguia branca,ES,-18.985619914878118,-40.741235369779915
aguiar,PB,-7.09301285540057,-38.17180592219051
aguiarnopolis,TO,-6.561381193085836,-47.47434760230476
aguiarnópolis,TO,-6.559462517002985,-47.4774869528423
agulha,SP,-21.998815453548172,-47.49271520116097
aimores,MG,-19.501259675907107,-41.071023646550685
aimorés,MG,-19.49563028777582,-41.08327567250618
aiquara,BA,-14.126271965040207,-39.889927091463356
aiuaba,CE,-6.583338622041794,-40.13887446818398
aiuruoca,MG,-21.978848424131765,-44.60576945448214
ajuricaba,RS,-28.23771966641463,-53.76337497269791
alagoa,MG,-22.171830593467934,-44.642598725792546
alagoa grande,PB,-7.041755696576409,-35.63219332049747
alagoa nova,PB,-7.06196902730586,-35.76440866320551
alagoinha,PB,-6.949275120162892,-35.54543763599661
alagoinha,PE,-8.467172120587465,-36.77485511634466
alagoinha do piaui,PI,-7.008805214833113,-40.937304622267234
alagoinha do piauí,PI,-7.009697630013004,-40.93801501497133
alagoinhas,BA,-12.136744532665942,-38.42344400813099
alambari,SP,-23.56157106605844,-47.88510054852834
albertina,MG,-22.201228491603455,-46.615456671407614
alberto isaacson,MG,-19.692467882083736,-45.135662412991074
alcantara,MA,-2.3894526933161426,-44.462232805069
alcantaras,CE,-3.583954156003647,-40.5417956284588
alcantil,PB,-7.743232162444185,-36.0629876303929
alcinopolis,MS,-18.32589093656241,-53.710012705921415
alcinópolis,MS,-18.325392286030805,-53.712134200949876
alcobaca,BA,-17.50293623343519,-39.270537988509126
alcobaça,BA,-17.482928013888323,-39.3038088878954
alcântara,MA,-2.3981287925329924,-44.438740786715606
alcântaras,CE,-3.5876704639941877,-40.54564962879273
aldeia,MG,-19.00823842193629,-41.11203382038614
aldeias altas,MA,-4.62596764081347,-43.46730549774115
alecrim,RS,-27.65821423628894,-54.76690473649302
alegre,ES,-20.760206303395872,-41.53516276114848
alegrete,RS,-29.78957258497392,-55.79128645489499
alegrete do piaui,PI,-7.241927090093527,-40.84388228862271
alegrete do piauí,PI,-7.241054564234952,-40.8563053064458
alegria,MG,-19.923198445099583,-41.921171484127186
alegria,RS,-27.80837589440083,-54.04533603585983
alem paraiba,MG,-21.872452912165326,-42.693540638079725
alenquer,PA,-1.9460951778154754,-54.738224499832995
alexandra,PR,-25.5534229350904,-48.62752422974045
alexandria,RN,-6.413355657069214,-38.013967260122904
alexandrita,MG,-19.70290819846817,-50.41424707469225
alexania,GO,-16.082989120550724,-48.50856735927953
alexânia,GO,-16.08639914589078,-48.50294429605729
alfenas,MG,-21.423970169543413,-45.95136350316126
alfredo chaves,ES,-20.627031870241968,-40.74931056937235
alfredo guedes,SP,-22.59326209208953,-48.793596238946726
alfredo marcondes,SP,-21.954288886597627,-51.41615439159179
alfredo vasconcelos,MG,-21.149443547778596,-43.767193356103036
alfredo wagner,SC,-27.70013863320932,-49.33157442341497
algodão de jandaíra,PB,-6.9040744281326205,-36.01124478544995
algodões,BA,-10.674079142611236,-39.05057508062291
alhandra,PB,-7.433968779567003,-34.910447698646784
alianca,PE,-7.5946400903932405,-35.22248909430234
alianca do tocantins,TO,-11.304778203322233,-48.9371764135414
aliança,PE,-7.6065236797352815,-35.230632629378015
aliança do tocantins,TO,-11.30718067563804,-48.93751542705336
almadina,BA,-14.704574197522879,-39.63759360043721
almas,TO,-11.567892561876574,-47.16831043399929
almeirim,PA,-1.5275035267552193,-52.577149947932085
almenara,MG,-16.176287602159036,-40.69302960684199
almino afonso,RN,-6.155247530745038,-37.76818300221504
almirante tamandare,PR,-25.333449013270254,-49.28401729149067
almirante tamandare do sul,RS,-28.116015587988002,-52.914714553089986
almirante tamandaré,PR,-25.331719159896544,-49.288351235389115
almirante tamandaré do sul,RS,-28.111052791742267,-52.91734552535572
aloandia,GO,-17.730768613653673,-49.476715112055636
aloândia,GO,-17.724938627006498,-49.48113596867425
alpercata,MG,-18.978826415455085,-41.97968305588025
alpestre,RS,-27.25035234287266,-53.03555485473069
alpinopolis,MG,-20.858237040079114,-46.38672391868265
alpinópolis,MG,-20.861700631340746,-46.3881005312071
alta alegre dos parecis,RO,-12.131338609068512,-61.85347578961117
alta floresta,MT,-9.90209628377088,-56.14798246464171
alta floresta d'oeste,RO,-11.947014804296677,-61.99946134183564
alta floresta do oeste,RO,-11.927292447340866,-61.993178631031334
alta floresta doeste,RO,-11.936514767963192,-62.00345070550289
altair,SP,-20.525024597395166,-49.06086757416893
altamira,PA,-3.2066377414917944,-52.21607476388613
altamira do maranhao,MA,-4.169239641524319,-45.48681350594832
altamira do parana,PR,-24.79917358055336,-52.715429195588364
altamira do paraná,PR,-24.80004256455994,-52.71550754024809
altaneira,CE,-6.999919634947142,-39.739299453186206
alterosa,MG,-21.255833645504303,-46.14487857042153
altinho,PE,-8.488189811112091,-36.06023398040497
altinopolis,SP,-21.02087356955779,-47.37717049956644
altinópolis,SP,-21.022586478038754,-47.37841678587679
alto alegre,PR,-22.89738838719939,-51.888509653563055
alto alegre,RR,2.9934006580974075,-61.386150392284705
alto alegre,RS,-28.780864912250042,-52.989186791718815
alto alegre,SP,-21.583295498233486,-50.16748932796554
alto alegre do iguacu,PR,-22.89671170647851,-51.890841433961405
alto alegre do maranhao,MA,-4.214134911794691,-44.44951278413494
alto alegre do pindare,MA,-3.7329394695563454,-45.86707229833637
alto alegre do pindaré,MA,-3.671094031611729,-45.845548140126475
alto alegre dos parecis,RO,-12.135037339165097,-61.85829592723605
alto araguaia,MT,-17.31726008132973,-53.223327746417894
alto bela vista,SC,-27.431744031945787,-51.906781127304434
alto boa vista,MT,-11.679428518842508,-51.37675429719136
alto calcado,ES,-20.946109999999976,-41.61999999999995
alto caparao,MG,-20.44423852885907,-41.87048771838964
alto caparaó,MG,-20.441648090813626,-41.868197419557525
alto do rodrigues,RN,-5.294882466955311,-36.75812276543539
alto feliz,RS,-29.395218045466553,-51.309959126537244
alto garcas,MT,-16.94618701116767,-53.53123705275049
alto garças,MT,-16.945731367928254,-53.53012239512448
alto horizonte,GO,-14.194380211559102,-49.34015563206796
alto jequitiba,MG,-20.426521477998417,-41.964250622017296
alto jequitibá,MG,-20.426429502620714,-41.96403742351163
alto longa,PI,-5.252364654310874,-42.20801055021926
alto maranhao,MG,-20.562229075264067,-43.85680748603392
alto mutum preto,ES,-19.274999999999977,-40.90749999999997
alto paraguai,MT,-14.513116110118148,-56.487034573030726
alto paraiso,PR,-23.507019839218874,-53.72850309319657
alto paraiso,RO,-9.718587699259096,-63.326395243811135
alto paraiso de goias,GO,-14.139492062754918,-47.51685167996019
alto parana,PR,-23.130730094832906,-52.321864300392704
alto paraná,PR,-23.127808402796493,-52.309908679504616
alto paraíso,PR,-23.50562086030579,-53.73231372825629
alto paraíso,RO,-9.719568514473316,-63.31690572943087
alto paraíso de goiás,GO,-14.138701191474786,-47.51706182324394
alto parnaiba,MA,-9.125525871165562,-45.947181513960324
alto parnaíba,MA,-9.11113812965101,-45.93251912207106
alto piquiri,PR,-24.032267622640834,-53.43985746757152
alto rio doce,MG,-21.023159198844187,-43.41263491879728
alto rio novo,ES,-19.05822235499108,-41.01879814974316
alto santo,CE,-5.519712483344855,-38.26737385532684
alto taquari,MT,-17.831339487997212,-53.28242914765827
altonia,PR,-23.87234886066627,-53.89350097315852
altos,PI,-5.037933605097157,-42.45957464672137
altônia,PR,-23.87124983203738,-53.89421948191455
aluminio,SP,-23.524098716525277,-47.25667632200116
alumínio,SP,-23.52123662207714,-47.255904987131935
alvacao,MG,-16.408132897676698,-44.21771746392958
alvaraes,AM,-3.2110188563874758,-64.80427013726734
alvarenga,MG,-19.417557882438132,-41.72756415518321
alvares florence,SP,-20.320866349002348,-49.909107783225615
alvares machado,SP,-22.07630414604995,-51.466719461990174
alvaro de carvalho,SP,-22.083206931312755,-49.717641246663305
alvinlandia,SP,-22.44197473231086,-49.76450313583045
alvinlândia,SP,-22.442313053006316,-49.76294021458492
alvinopolis,MG,-20.11150606065766,-43.066597730401426
alvinópolis,MG,-20.098402153790882,-43.04737640845585
alvorada,MG,-19.88896729373426,-45.14923651880442
alvorada,RS,-30.008429725047467,-51.06694091984415
alvorada,TO,-12.478669410006965,-49.122904845770265
alvorada d'oeste,RO,-11.35023142656732,-62.28751193399718
alvorada de minas,MG,-18.73744917819915,-43.37349462270953
alvorada do gurgueia,PI,-8.451118499999952,-43.92315624999995
alvorada do gurguéia,PI,-8.455556999999946,-43.978332499999965
alvorada do norte,GO,-14.485339149785249,-46.506223797764335
alvorada do oeste,RO,-11.33501778449655,-62.276737115089645
alvorada do sul,PR,-22.779245347587953,-51.229786835378604
além paraíba,MG,-21.87371057751886,-42.69373494440711
amambai,MS,-23.090817384851352,-55.22809370379079
amambaí,MS,-23.098371272219378,-55.225773365487875
amanari,CE,-3.504514941264218,-39.57289793990247
amandina,MS,-22.385330182396338,-53.59466428729488
amanhece,MG,-18.53401304549487,-48.19629512032545
amapa,AP,2.0537900112566634,-50.792152054234904
amapa do maranhao,MA,-1.6732576653020137,-46.01030262739159
amapari,AP,0.7771879222276791,-51.95583223023856
amapora,PR,-23.095387898319984,-52.786050657616805
amaporã,PR,-23.09284811129888,-52.79049991664669
amapá do maranhão,MA,-1.6747728410811775,-46.01120050486437
amaraji,PE,-8.376909914843816,-35.451891714402564
amaral ferrador,RS,-30.874238817770845,-52.253193029298465
amaralina,GO,-13.902455161044607,-49.40402650998531
amarante,PI,-6.242804734400218,-42.853531041069
amarante do maranhao,MA,-5.550368892779593,-46.719194177073014
amarantina,MG,-20.31150115053566,-43.698165529008
amargosa,BA,-13.027915958035509,-39.60169104219675
amatura,AM,-3.366347571444517,-68.19808226751044
amaturá,AM,-3.360578634395564,-68.19734060856122
amelia rodrigues,BA,-12.399008114779287,-38.75668208849201
america dourada,BA,-11.45534706517941,-41.45792194795551
americana,SP,-22.737256111041713,-47.323699357946985
americano,PA,-1.3043903244378463,-48.049921574413105
americano do brasil,GO,-16.25358822328803,-49.981568965848076
americo brasiliense,SP,-21.73283329963874,-48.109930775797594
americo de campos,SP,-20.299632573742652,-49.73238197918518
ametista do sul,RS,-27.365846704987625,-53.178636499482884
amontada,CE,-3.3654681773745936,-39.83000034505478
amorinopolis,GO,-16.620679529424255,-51.09556960647199
amorinópolis,GO,-16.615396337069903,-51.09695599941002
amparo,PB,-7.567200620856406,-37.06092390413923
amparo,SP,-22.708334832836332,-46.77982699608922
amparo da serra,MG,-20.50873879690439,-42.80091590525793
amparo de sao francisco,SE,-10.129935198619387,-36.926615680686055
ampere,PR,-25.91948242542998,-53.47426387071248
ampére,PR,-25.922328459472798,-53.474870030924
amélia rodrigues,BA,-12.409339492924591,-38.74574885622105
américo brasiliense,SP,-21.73493972579475,-48.1099810149176
américo de campos,SP,-20.297990800863584,-49.733959948663376
ana dias,SP,-24.303711041917182,-47.06606866478016
anadia,AL,-9.684047221479462,-36.30329345457926
anage,BA,-14.611423342423128,-41.136312128144475
anagé,BA,-14.610797833111864,-41.13701921768496
anahy,PR,-24.644865290669706,-53.133711223838546
anajas,PA,-1.0043124828655854,-49.92184596497754
anajatuba,MA,-3.265782474827339,-44.615626731243495
anajás,PA,-0.9844708415587737,-49.93890235637042
analandia,SP,-22.12448307795461,-47.66233977037924
anama,AM,-3.5791632887343816,-61.4047788174341
ananas,TO,-6.370023441915631,-48.072614949350445
ananindeua,PA,-1.3664682374065154,-48.40141600314848
ananás,TO,-6.365802118433749,-48.075497185073445
anapolis,GO,-16.326428814607524,-48.94884016591897
anapu,PA,-3.4636809231806556,-51.207049637164026
anapurus,MA,-3.6741935509367245,-43.11039673415854
anastacio,MS,-20.49416178826572,-55.801304874870276
anastácio,MS,-20.487000566820704,-55.806336732309404
anaurilandia,MS,-22.183493629042154,-52.71771123924639
anaurilândia,MS,-22.184245074888018,-52.7191892128821
anchieta,ES,-20.800378086859887,-40.648849815509344
anchieta,SC,-26.53662393358684,-53.33140901036454
andarai,BA,-12.777115285366513,-41.27650549536144
andaraí,BA,-12.814760684427997,-41.32804859966593
andira,PR,-23.048411332218812,-50.22989397409513
andirá,PR,-23.047426378443426,-50.23488552386969
andorinha,BA,-10.344702161161972,-39.83061876266924
andradas,MG,-22.07047143353818,-46.57354819165932
andrade pinto,RJ,-22.239158249094665,-43.42344680674862
andradina,SP,-20.89921803197381,-51.37738057763974
andre da rocha,RS,-28.63235819903258,-51.573247145680746
andrelandia,MG,-21.739488547871638,-44.30983691863982
andrelândia,MG,-21.742213976692046,-44.3119097732587
andrequice,MG,-18.25622999999996,-45.06661999999994
andré da rocha,RS,-28.633323952779627,-51.573692583003904
angatuba,SP,-23.49567484007595,-48.40706839425579
angelandia,MG,-17.728946293657646,-42.27073170474983
angelica,MS,-22.15469316484538,-53.778471882567615
angelim,PE,-8.889457801054395,-36.284772829105734
angelina,SC,-27.58206007230407,-48.98438664013937
angelândia,MG,-17.72918272096108,-42.26919778724728
angical,BA,-12.006384427285656,-44.698162626990054
angical do piaui,PI,-6.077160299486864,-42.73579835439659
angical do piauí,PI,-6.090204944256271,-42.7380798758128
angico,TO,-6.392815765591841,-47.86610721026617
angicos,RN,-5.66603171630403,-36.60327364407801
angra dos reis,RJ,-22.99505330727889,-44.35328502084304
anguera,BA,-12.150285458856343,-39.245960093032245
anguereta,MG,-19.14045895574384,-44.656343884728464
angulo,PR,-23.193225327666635,-51.915829324915514
angustura,MG,-21.868313548258158,-42.698740442406134
angélica,MS,-22.158754150920615,-53.776291569722915
anhandui,MS,-20.981461451885522,-54.503718322956225
anhanguera,GO,-18.339832546002228,-48.21937149616647
anhembi,SP,-22.79055313296728,-48.1292283726356
anhumas,SP,-22.29612614613957,-51.387004974544936
anicuns,GO,-16.459840612028362,-49.96081462896285
anisio de abreu,PI,-9.186196771845553,-43.04891895070123
anita garibaldi,SC,-27.687250757458745,-51.12836796676873
anitapolis,SC,-27.90431811708314,-49.12870759259421
anitápolis,SC,-27.903363640614536,-49.1279992272229
anori,AM,-3.7454147776740614,-61.658785623085464
anta,RJ,-22.23220392930023,-43.05266133211299
anta gorda,RS,-28.9720990314305,-52.00750426344917
antas,BA,-10.411637869766949,-38.327277843128506
antonina,PR,-25.43470443919635,-48.712753541824284
antonina do norte,CE,-6.775232323102792,-39.98814021289837
antonio almeida,PI,-7.221787053150548,-44.1941006414621
antonio cardoso,BA,-12.437804546717423,-39.120387808882356
antonio carlos,MG,-21.31636365493685,-43.75121311393573
antonio carlos,SC,-27.517499927594415,-48.766469895540055
antonio dias,MG,-19.645957369834644,-42.86753891487179
antonio goncalves,BA,-10.57302558573597,-40.275827657027556
antonio joao,MS,-22.19094677334108,-55.94915118985083
antonio martins,RN,-6.213919064448228,-37.89910224097036
antonio olinto,PR,-25.986104950861993,-50.199083172202755
antonio pereira,MG,-20.283938203663602,-43.48187358746016
antonio prado,RS,-28.857214777991516,-51.28458915711345
antonio prado de minas,MG,-21.012742396079165,-42.121740926437454
antunes,MG,-19.907807842506607,-44.698242198322056
antunes (igaratinga),MG,-19.9528911674646,-44.705766537509696
antônio almeida,PI,-7.218767606910639,-44.19612938299576
antônio cardoso,BA,-12.437357096028908,-39.1206630345722
antônio carlos,MG,-21.342634327491034,-43.755896674920834
antônio carlos,SC,-27.511549602623653,-48.78312669952821
antônio dias,MG,-19.646763516793058,-42.86376361737888
antônio gonçalves,BA,-10.567980916052049,-40.27579671319823
antônio joão,MS,-22.18957246015805,-55.94924428871426
antônio martins,RN,-6.215480534391254,-37.88836920759543
antônio olinto,PR,-25.925960999999944,-50.13360349999997
antônio pereira,MG,-20.302851650036125,-43.480192602708854
antônio prado,RS,-28.85464090921841,-51.28150487705431
antônio prado de minas,MG,-21.01891842019032,-42.110280183571945
anápolis,GO,-16.327249365651344,-48.94869596705718
aparecida,PB,-6.78581814474845,-38.083458514723446
aparecida,SP,-22.851231225609038,-45.24664690995327
aparecida d oeste,SP,-20.450816726968945,-50.88286949879962
aparecida d'oeste,SP,-20.454283404365263,-50.88282453060894
aparecida de goiania,GO,-16.7770941635992,-49.275568678115775
aparecida de goiânia,GO,-16.778499672264875,-49.27678827746013
aparecida de minas,MG,-18.867062763128185,-48.264116980102976
aparecida de monte alto,SP,-21.59533285617727,-48.12446105412283
aparecida de sao manuel,SP,-22.73053188890062,-48.614713618517136
aparecida de são manuel,SP,-22.733591606447433,-48.5945885586694
aparecida do rio doce,GO,-18.288548742540375,-51.15799632840345
aparecida do rio negro,TO,-9.950409822060305,-47.975271675045946
aparecida do taboado,MS,-20.080651275371537,-51.10642297448527
aparecida doeste,SP,-20.45510133757992,-50.88130731707086
aperibe,RJ,-21.62582034731358,-42.10482247378425
aperibé,RJ,-21.62591387155748,-42.105486188667456
apeu,PA,-1.295252999999994,-47.978118
apiaca,ES,-21.153566062601175,-41.56711877220422
apiacas,MT,-9.559467343178106,-57.392359205864956
apiacá,ES,-21.15057398340369,-41.5709705731797
apiacás,MT,-9.539548339767281,-57.39338749594591
apiai,SP,-24.510304276423273,-48.84382861804537
apiaí,SP,-24.51078035363957,-48.845100059912795
apicum-acu,MA,-1.5321989889383978,-45.07954687627498
apiuna,SC,-27.040098540929808,-49.38736340966762
apiúna,SC,-27.036092704620092,-49.388462345238345
apodi,RN,-5.6608569705782,-37.797452609510444
apora,BA,-11.665688918521814,-38.09323846103476
apore,GO,-18.963223077650238,-51.92693904530847
aporá,BA,-11.679041195321034,-38.12718919875407
aporé,GO,-18.961835523773708,-51.92694507718156
apuarema,BA,-13.856428388404744,-39.744409767080825
apucarana,PR,-23.55489661758209,-51.456353228191404
apui,AM,-7.197132487896773,-59.8880159214852
apuiares,CE,-3.9468951885637225,-39.43151108792288
apuiarés,CE,-3.9470552952321714,-39.431098675088016
apuí,AM,-7.196901671946424,-59.88933924287576
aquidaba,SE,-10.284870765298363,-37.01914517791074
aquidaban,PR,-23.584743000000003,-51.90274349999999
aquidabã,SE,-10.2842397486987,-37.020032855708095
aquidauana,MS,-20.467619302049197,-55.783090950473536
aquiraz,CE,-3.912322652354214,-38.376434985468876
arabuta,SC,-27.15840379469822,-52.14243275804496
aracagi,PB,-6.851316677283107,-35.38152205143128
aracai,MG,-19.202364153147407,-44.24791910410189
aracaju,SE,-10.941346378601748,-37.06727810860317
aracariguama,SP,-23.434263170131413,-47.06744872543871
aracas,BA,-12.211395226522535,-38.202747833222865
aracati,CE,-4.56650307165923,-37.76389038540504
aracatu,BA,-14.417742491973552,-41.44989365700188
aracatuba,SP,-21.20555581760857,-50.443193714677705
arace,ES,-19.886590969076387,-40.72353893360273
araci,BA,-11.335260862257696,-38.96194718415279
aracitaba,MG,-21.341162438544124,-43.37755847112716
aracoiaba,CE,-4.398558702292383,-38.76904696367999
aracoiaba,PE,-7.788835988700661,-35.08857537280887
aracoiaba da serra,SP,-23.51503482346672,-47.609932002466735
aracruz,ES,-19.84769042963587,-40.22863699645417
aracu,GO,-16.35559065099166,-49.682874097524554
aracuai,MG,-16.86883131439028,-42.07904685695032
aragarcas,GO,-15.91071428305576,-52.23270081465406
aragarças,GO,-15.910251232014685,-52.2317752767676
aragoiania,GO,-16.911957011140164,-49.45104782108625
aragoiânia,GO,-16.909374345034593,-49.44393742945677
aragominas,TO,-7.168983860362199,-48.53033757203072
araguacema,TO,-8.814714973312014,-49.556563413533574
araguacu,TO,-12.928384840808663,-49.826197286894356
araguaia,ES,-20.41550908384522,-40.64411836054274
araguaiana,MT,-15.724665873318244,-51.8348328064225
araguaina,TO,-7.194145689018862,-48.20870898863984
araguainha,MT,-16.85899279055871,-53.03423527198579
araguana,MA,-2.9505096665532773,-45.66542619168681
araguana,TO,-6.702874315562838,-48.55026129159091
araguanã,TO,-6.581948699262933,-48.6440438846919
araguapaz,GO,-15.098425662944779,-50.617515281317765
araguari,MG,-18.64778819488765,-48.19413419921396
araguatins,TO,-5.650280663884922,-48.12128374688021
araguaçu,TO,-12.920932161487835,-49.82756013509299
araguaína,TO,-7.191999417749101,-48.20998813909487
araioses,MA,-2.8850541819643807,-41.904381270947184
araióses,MA,-2.8896796267859806,-41.90376547482041
aral moreira,MS,-22.953397805044233,-55.61759557539434
aramari,BA,-12.091330630741258,-38.5003316145126
arambare,RS,-30.912908274454868,-51.501951864682084
arambaré,RS,-30.907751516020756,-51.499425843416034
arame,MA,-4.8897314492920385,-46.00677976876072
aramina,SP,-20.092201099659754,-47.79068484733614
arandu,SP,-23.136564843736068,-49.05444039853914
arantina,MG,-21.91515898275318,-44.25360039856993
arapei,SP,-22.673499500042812,-44.446494992228956
arapeí,SP,-22.67445085107651,-44.446757241728356
arapiraca,AL,-9.75088947728531,-36.65688381187583
arapoema,TO,-7.656670780626437,-49.06430152660563
araponga,MG,-20.6671706287898,-42.52110705532634
arapongas,PR,-23.40888332472146,-51.434763168422826
arapora,MG,-18.433559230520945,-49.18513587236584
araporã,MG,-18.432791642142238,-49.18663962139803
arapoti,PR,-24.142597510300845,-49.82236722660047
arapua,MG,-19.03645647077553,-46.1519771695105
arapua,MS,-20.78833288880478,-52.06038271529206
arapua,PR,-24.317821499999976,-51.814006374999984
araputanga,MT,-15.46944533964881,-58.34773170554173
arapuá,MG,-19.036174854554112,-46.153894350819144
arapuã,PR,-24.30585398586456,-51.78671904044258
araquari,SC,-26.407378348238257,-48.75811272641001
arara,PB,-6.8277176355033395,-35.76039334973399
ararangua,SC,-28.94309732360172,-49.484519509318304
araranguá,SC,-28.9418137844744,-49.48200911732147
araraquara,SP,-21.782712943567855,-48.171714984770624
araras,SP,-22.357745988322282,-47.375545535422965
ararenda,CE,-4.755502730423517,-40.81594208154287
ararendá,CE,-4.752986272735911,-40.83065274022709
arari,MA,-3.450955216573816,-44.77844191510273
ararica,RS,-29.61828866098833,-50.929312277245714
araricá,RS,-29.62421667965923,-50.92472848375899
araripe,CE,-7.198190230663674,-40.141118021081645
araripina,PE,-7.577678685814366,-40.501362066517
araruama,RJ,-22.869309765671982,-42.32125599263829
araruna,PB,-6.534118134203998,-35.743283898915735
araruna,PR,-23.929495728966735,-52.50064919097112
arataca,BA,-15.261549087667621,-39.416715230662405
aratiba,RS,-27.393878979446516,-52.30079208837952
aratuba,CE,-4.419358212248046,-39.04633611936836
aratuipe,BA,-13.074654354755138,-38.99632024881133
aratuípe,BA,-13.069350503117775,-38.98836308898651
araua,SE,-11.264487980231028,-37.62038398195362
araucaria,PR,-25.581421508995142,-49.38809273708963
araucária,PR,-25.58110427726189,-49.38827233752239
araujos,MG,-19.94457922756843,-45.166650917822786
arauá,SE,-11.265128131483385,-37.616756457901104
araxa,MG,-19.592272553654006,-46.93908706424617
araxá,MG,-19.59134694416147,-46.93912509869802
araçagi,PB,-6.850405070147517,-35.37576025357081
araçariguama,SP,-23.435052478132754,-47.06681094523601
araçatuba,SP,-21.204529659652472,-50.443234271485444
araçaí,MG,-19.199484332305055,-44.24675452107722
araçoiaba,PE,-7.790290354442398,-35.09134850015013
araçoiaba da serra,SP,-23.51655647819947,-47.61146966015303
araçu,GO,-16.353879052519602,-49.685644908469484
araçuaí,MG,-16.93859629592242,-42.13523484292538
araçás,BA,-12.211149119713475,-38.20252789329346
araújos,MG,-19.94455332571384,-45.16498298249606
arceburgo,MG,-21.364132750962657,-46.93989548487439
arco verde,RS,-29.35027093898587,-51.54791183893818
arco-iris,SP,-21.773506095170134,-50.46472672496849
arcos,MG,-20.288301513728257,-45.541300693446196
arcoverde,PE,-8.418945170759907,-37.059362484446474
areado,MG,-21.35871206261818,-46.1449665979704
areal,RJ,-22.243707999292415,-43.09854917159979
arealva,SP,-22.02950145575722,-48.91356673220313
areia,PB,-6.96672904710812,-35.70250563207212
areia branca,RN,-4.956031992866762,-37.12783949027907
areia branca,SE,-10.756914282151778,-37.313691010983966
areia branca dos assis,PR,-7.4219600842578775,-39.350876514145014
areia de baraunas,PB,-7.12397776931988,-36.94639315542039
areial,PB,-7.048617955582523,-35.92421174107332
areias,SP,-22.582287289027455,-44.69615578487731
areiopolis,SP,-22.674138885355855,-48.66639441224437
areiópolis,SP,-22.672084388136987,-48.664230353430156
arembepe,BA,-12.7621161537852,-38.18152285695949
arenapolis,MT,-14.459992121241395,-56.842861279034864
arenopolis,GO,-16.385489638361854,-51.55956684307419
arenápolis,MT,-14.460796953576503,-56.84148749881078
arez,RN,-6.198808041095981,-35.16435580993192
argirita,MG,-21.613990095260654,-42.83721746330323
aricanduva,MG,-17.868015877622902,-42.556108803821814
arinos,MG,-15.920350682439093,-46.10773503284158
aripuana,MT,-10.185682868565964,-59.46188003858034
aripuanã,MT,-10.183186386436542,-59.45683982655064
ariquemes,RO,-9.910527745214482,-63.03555499768102
ariranha,SP,-21.189588340616634,-48.78771758700769
ariranha do ivai,PR,-24.383058743843282,-51.58204772189658
ariranha do ivaí,PR,-24.38695032123424,-51.58886947716671
armacao de buzios,RJ,-22.770156248566522,-41.91256052463261
armacao dos buzios,RJ,-22.76648557858327,-41.90944761043472
armazem,SC,-28.259708667735318,-49.01849908041336
armazém,SC,-28.260060126279694,-49.01394199870497
armação dos búzios,RJ,-22.765811275619583,-41.90369811661507
arneiroz,CE,-6.325943690618894,-40.15613983579525
aroazes,PI,-6.105346329212214,-41.78832315437302
aroeiras,PB,-7.546247807895233,-35.70730669344224
arraial,PI,-6.652049127378291,-42.532280999433056
arraial d ajuda,BA,-16.49087155319871,-39.082955365333895
arraial d'ajuda,BA,-16.385873646040263,-39.29731978307632
arraial do cabo,RJ,-22.963546289873033,-42.05072170618839
arraias,TO,-12.92069951964487,-46.95008122252024
arroio do meio,RS,-29.394875869959982,-51.945171165133004
arroio do padre,RS,-31.441525370787435,-52.41824426181239
arroio do sal,RS,-29.5409423986955,-49.88526690603356
arroio do tigre,RS,-29.333450448380372,-52.995051771964
arroio dos ratos,RS,-30.089920662146096,-51.73152450330508
arroio grande,RS,-32.23566062512626,-53.078851281770035
arroio trinta,SC,-26.928511307806666,-51.335122525174846
arrozal,RJ,-22.594589669312334,-44.0307961050585
artur nogueira,SP,-22.571207861628345,-47.1657687687331
aruana,GO,-14.928390298848775,-51.07959158820119
aruanã,GO,-14.912951003742663,-51.07936641854001
aruja,SP,-23.400745536766703,-46.322839931458134
arujá,SP,-23.400838999619523,-46.320127564242725
arvoredo,SC,-27.078409010542018,-52.45510633727941
arvorezinha,RS,-28.87190543829348,-52.180111441190874
ascurra,SC,-26.95718708184798,-49.37627016510524
aspasia,SP,-20.16039149883064,-50.725964383456855
aspásia,SP,-20.161347235463325,-50.72532473305938
assai,PR,-23.375007494886024,-50.845827902884544
assare,CE,-6.875517170698454,-39.870908804180004
assaré,CE,-6.872501585006234,-39.87286270188077
assaí,PR,-23.378446836351078,-50.84565119673241
assis,SP,-22.65849706222492,-50.41828219858361
assis brasil,AC,-10.935105601017353,-69.55783084258935
assis chateaubriand,PR,-24.402021416487024,-53.51740411970834
assuncao,PB,-7.077091335231696,-36.732248704492505
assuncao do piaui,PI,-5.864192360581453,-41.06069465744806
astolfo dutra,MG,-21.314030738133884,-42.864233964033346
astorga,PR,-23.236673429298893,-51.667933872284294
atalaia,AL,-9.506693572289144,-36.01488129857166
atalaia,PR,-23.151657928456522,-52.05211506960893
atalaia do norte,AM,-4.36536535897804,-70.19256688680632
atalanta,SC,-27.421321255507692,-49.782950034762216
ataleia,MG,-18.058760836257957,-41.137032820377286
ataléia,MG,-18.041821044963285,-41.111806951634556
atibaia,SP,-23.123134519244505,-46.560481987331165
atilio vivacqua,ES,-20.92514780451319,-41.19649395129351
augustinopolis,TO,-5.4682264566119505,-47.88823718970732
augustinópolis,TO,-5.469032311127268,-47.88870673652057
augusto correa,PA,-1.0236028208649164,-46.63744984962762
augusto corrêa,PA,-1.0391525314784167,-46.62137837541804
augusto de lima,MG,-18.108587652103864,-44.261888612755996
augusto pestana,RS,-28.51518329915839,-53.994146190298764
aurea,RS,-27.6954931647399,-52.053414140354654
aurelino leal,BA,-14.327923509614225,-39.36816194934361
auriflama,SP,-20.685083174259976,-50.55462075520381
aurilandia,GO,-16.6800504509085,-50.46526066427959
aurora,CE,-6.944245619931199,-38.965894156976866
aurora,SC,-27.314662192631335,-49.636809990266705
aurora do iguacu,PR,-25.368938982586084,-54.158713248406784
aurora do para,PA,-2.1350551769507287,-47.55795963271966
aurora do tocantins,TO,-12.710710358907429,-46.40543513701018
autazes,AM,-3.581535752432196,-59.12926969963856
avai,SP,-22.157654380802075,-49.33233161736277
avanhandava,SP,-21.460710063924196,-49.94644521887572
avare,SP,-23.101661110048383,-48.923743286031524
avaré,SP,-23.099655634643035,-48.92455613010045
avaí,SP,-22.158778750532136,-49.331077609850986
avaí do jacinto,MG,-16.14535826868856,-40.296888430361264
avelar,RJ,-22.327926993618423,-43.41168485928766
avelino lopes,PI,-10.141657474791316,-43.94873133203079
avelinopolis,GO,-16.470292583954837,-49.7597428430537
axixa,MA,-2.8372461578244654,-44.05561490724336
axixa do tocantins,TO,-5.631981638287438,-47.76582699758014
axixá do tocantins,TO,-5.62026600570658,-47.77409789303798
azambuja,SC,-28.493609999999933,-49.220279999999946
azurita,MG,-20.0081703442994,-44.47163413146476
açailândia,MA,-4.951866257769791,-47.494153379668916
açu,RN,-5.5800408471280845,-36.91444838382109
açu da torre,BA,-12.576809999999966,-38.00416999999993
açucena,MG,-19.073388487504147,-42.54723470033183
babaculandia,TO,-7.2036422139499665,-47.758757986818146
bacabal,MA,-4.226384665835355,-44.78906394035817
bacabeira,MA,-2.949605953921348,-44.32932452475407
bacaxa,RJ,-22.893426802422145,-42.47013777700554
bacaxa (saquarema) - distrito,RJ,-22.89762301753369,-42.47416898392744
bacuri,MA,-1.7280569130405292,-45.14182897643022
bacurituba,MA,-2.70778070740857,-44.74003883695993
bady bassitt,SP,-20.91711533777068,-49.45081883954137
baependi,MG,-21.961660896718744,-44.88903628055419
bage,RS,-31.325081063754553,-54.10372230962073
bagre,PA,-1.9000030000967698,-50.209687907949565
baguacu,SP,-20.69019808780269,-49.06794576792927
baguari,MG,-18.871945482069957,-41.963082328814274
bagé,RS,-31.324769791202073,-54.10331640651476
baia formosa,RN,-6.370052320444516,-35.005351165547985
baianopolis,BA,-12.305739641294254,-44.5388124087167
baiao,PA,-2.792978382515453,-49.669830930747096
baixa grande,BA,-11.96147261711341,-40.16778905956732
baixa grande do ribeiro,PI,-7.9084243651879484,-45.21088308989325
baixio,CE,-6.729919287548336,-38.7159484459393
baixo guandu,ES,-19.512568777088724,-41.012926255435566
baião,PA,-2.7925289692482536,-49.66846838514368
balbinos,SP,-21.901262418619652,-49.356838571590075
baldim,MG,-19.35343986807516,-43.95976260855736
baliza,GO,-16.200375508864134,-52.544147699130235
balneario arroio do silva,SC,-28.98799086431239,-49.418953571231974
balneario barra do sul,SC,-26.45817040232512,-48.616573643777784
balneario camboriu,SC,-26.990124247192306,-48.633114373691896
balneario de picarras,SC,-26.75737075199301,-48.6757379478268
balneario gaivota,SC,-29.164036202797508,-49.59491154145488
balneario picarras,SC,-26.762899407242198,-48.68290270889026
balneario pinhal,RS,-30.244333143421496,-50.26465313833557
balneario rincao,SC,-28.82923322363224,-49.23348600862617
balneário arroio do silva,SC,-28.984190901152985,-49.41423598011292
balneário barra do sul,SC,-26.45579966078799,-48.61864923548313
balneário camboriú,SC,-27.004554392090014,-48.63780655782501
balneário gaivota,SC,-29.153758480841365,-49.58470286824751
balneário pinhal,RS,-30.239902706096306,-50.252367331387156
balneário piçarras,SC,-26.75797972581447,-48.68083723274712
balneário rincão,SC,-28.82545454442003,-49.23423818944559
balsa nova,PR,-25.57349560568768,-49.62757015584016
balsamo,SP,-20.737177490083123,-49.58219424928403
balsas,MA,-7.5314749353251536,-46.04310515312331
bambui,MG,-20.015437694927495,-45.97709809819721
bambuí,MG,-20.013068737157184,-45.97495066290959
banabuiu,CE,-5.30511200872304,-38.91958010341349
banabuiú,CE,-5.306349943865625,-38.919725095126836
bananal,SP,-22.68345055122797,-44.318917933330425
bananeiras,PB,-6.748088778361755,-35.63143101928754
bandeira,MG,-15.885797701961174,-40.5622830184042
bandeira do sul,MG,-21.730125416985874,-46.3864678018016
bandeirante,SC,-26.767565271847264,-53.64012486945639
bandeirantes,MG,-23.13289603182123,-50.3748050012412
bandeirantes,MS,-19.909944722599914,-54.36436481330819
bandeirantes,PR,-23.111896862925292,-50.37155139815296
bandeirantes d'oeste,SP,-23.106241494540207,-50.377957047095386
bandeirantes do tocantins,TO,-7.759597790519602,-48.57808559792473
bannach,PA,-7.644858345436869,-50.35747312439622
banquete,RJ,-22.174558223906683,-42.4725765370264
banzae,BA,-10.585968502698583,-38.62099450700789
banzaê,BA,-10.582962046751394,-38.611497214186194
barao,RS,-29.37666941197211,-51.49824451559166
barao ataliba nogueira,SP,-22.381617751708013,-46.74721971320819
barao de antonina,SP,-23.630205088449827,-49.56238466478771
barao de cocais,MG,-19.93492158174251,-43.480723242871434
barao de cotegipe,RS,-27.61640332999156,-52.3814971713648
barao de grajau,MA,-6.749827164330503,-43.04311197987049
barao de juparana,RJ,-22.344483225330805,-43.681665396639325
barao de melgaco,MT,-16.19543385236072,-55.951225309969416
barao de monte alto,MG,-21.242845523629637,-42.235689029589814
barao do triunfo,RS,-30.389810826279273,-51.73751780101631
barauna,PB,-6.644907070632345,-36.24817306021993
barauna,RN,-5.080049626530327,-37.61533523179718
baraúna,RN,-5.080192966343256,-37.61927681875592
barbacena,MG,-21.219352072707792,-43.771457365243094
barbalha,CE,-7.310555661406291,-39.30173021019368
barbosa,SP,-21.265672541770414,-49.95032168011177
barbosa ferraz,PR,-24.027435144481696,-52.009024023193035
barcarena,PA,-1.5118836506451743,-48.63407331830913
barcelona,RN,-5.949142570178054,-35.9269540288715
barcelos,AM,-0.970815290107954,-62.92765736209585
barcelos,RJ,-21.721195899316836,-41.161704607134546
bariri,SP,-22.074022270567585,-48.74025621655563
barra,BA,-11.091426618171694,-43.14545144223989
barra bonita,SC,-26.6549131998767,-53.43887790780584
barra bonita,SP,-22.48619767441374,-48.559591023505334
barra d'alcantara,PI,-6.521393461333288,-42.10609175044488
barra d'alcântara,PI,-6.520915112841016,-42.10528194236836
barra da estiva,BA,-13.627303617775587,-41.32764243619517
barra de  santo antônio,AL,-9.398660608000114,-35.49790109466666
barra de guabiraba,PE,-8.420432402918046,-35.661620866823256
barra de santa rosa,PB,-6.722975852710321,-36.05636685098978
barra de santana,PB,-7.523320024290516,-35.998917676645306
barra de santo antonio,AL,-9.409987656172145,-35.509963851946296
barra de santo antônio,AL,-9.403663307936515,-35.5092164747729
barra de sao francisco,ES,-18.750639170399417,-40.88724600352659
barra de sao joao,RJ,-22.57646348285718,-41.988423039765735
barra de sao miguel,AL,-9.838045888628173,-35.89588712438698
barra de sao miguel,PB,-7.752159182409464,-36.318438917400584
barra de são francisco,ES,-18.751980438035332,-40.882171123346154
barra de são joão,RJ,-22.571978646789894,-41.98975780323623
barra de são miguel,AL,-9.841901568272332,-35.89795428221847
barra do ariranha,MG,-18.66543471822127,-41.10047669413932
barra do bugres,MT,-15.069536524574868,-57.187765718121476
barra do chapeu,SP,-24.472272014557703,-49.02487004636343
barra do chapéu,SP,-24.47429399611513,-49.025958171429465
barra do choca,BA,-14.771048917315847,-40.64005424899493
barra do choça,BA,-14.865413303406,-40.576087209802836
barra do corda,MA,-5.504495037749826,-45.24672365808475
barra do cuiete,MG,-19.06914736253169,-41.53228717515228
barra do garcas,MT,-15.87863735073037,-52.27223991765776
barra do garças,MT,-15.879476847501987,-52.27720947710932
barra do guarita,RS,-27.19171734348444,-53.70962055672457
barra do jacare,PR,-23.112710960841177,-50.17450653120074
barra do jacaré,PR,-23.11274456799206,-50.18059906256319
barra do jacuipe,BA,-11.869524879131234,-40.21960571122674
barra do mendes,BA,-11.81567580101508,-42.059525987376695
barra do pirai,RJ,-22.474777683742655,-43.824261883117515
barra do piraí,RJ,-22.472936891445006,-43.82562843448255
barra do quarai,RS,-30.208462771651977,-57.55079633243585
barra do quaraí,RS,-30.208712525020594,-57.550762654969674
barra do ribeiro,RS,-30.29829374043067,-51.308982963290255
barra do rio azul,RS,-27.410053168682186,-52.41363609091986
barra do rocha,BA,-14.20880157448234,-39.60212491227082
barra do tarrachil,BA,-13.00910117780522,-38.525978987269255
barra do turvo,SP,-24.778404880119687,-48.49975225264679
barra dos coqueiros,SE,-10.910546001317837,-37.02852300227634
barra feliz,MG,-19.96379765255795,-43.45810248787213
barra funda,RS,-27.923880079842665,-53.04198309638062
barra longa,MG,-20.28331413855323,-43.03934543153543
barra mansa,RJ,-22.541153347532763,-44.171692237730994
barra velha,SC,-26.660970150266756,-48.691953317317825
barracao,PR,-26.25386474605838,-53.63363165201182
barracao,RS,-27.67585562899679,-51.45833879109628
barracão,PR,-26.253384098708704,-53.636568487177726
barracão,RS,-27.684932511811454,-51.45462956764742
barrado quarai,RS,-30.208501711996696,-57.551585016369856
barras,PI,-4.243269940730288,-42.29404262878172
barreira,CE,-4.291176025645771,-38.6417165334928
barreiras,BA,-12.148291440071393,-44.96726006078333
barreiras do piaui,PI,-9.924178531246852,-45.475758633548054
barreiras do piauí,PI,-9.923158724894028,-45.47667825404228
barreirinhas,MA,-2.7572296690037668,-42.83179515539183
barreiro branco,MG,-15.388257250316318,-43.11312664230795
barreiros,PE,-8.814489427567528,-35.196763396960684
barretos,SP,-20.559626185890163,-48.567785120619796
barrinha,SP,-21.190885638654144,-48.15620878829506
barro,CE,-7.1739467925333615,-38.778493096718
barro alto,BA,-11.76948844484253,-41.90185348124609
barro alto,GO,-14.965873629628225,-48.919185735793526
barro duro,MA,-2.8906151187756013,-42.310004354002686
barro duro,PI,-5.820000723260334,-42.51128535406103
barro preto,BA,-14.808844881550723,-39.473220746209144
barrocas,BA,-11.531422232554455,-39.07759493501058
barrolandia,TO,-9.835706036446274,-48.726432154696646
barrolândia,TO,-9.835072613844872,-48.72492732015216
barroquinha,CE,-2.908957407617819,-41.23662682713504
barros cassal,RS,-29.092217224881846,-52.58608560249378
barroso,MG,-21.191206592695412,-43.97510580556287
barueri,SP,-23.50591265074973,-46.86935863185775
barão,RS,-29.37575161928599,-51.50138475722986
barão ataliba nogueira,SP,-22.39078184009527,-46.74541440796751
barão de antonina,SP,-23.629072885027494,-49.561854913131356
barão de cocais,MG,-19.93137389559047,-43.47843903958147
barão de cotegipe,RS,-27.620882001452433,-52.37341637409097
barão de grajaú,MA,-6.756713999999992,-43.02560475
barão de juparana,RJ,-22.343900773196097,-43.68154304512115
barão de monte alto,MG,-21.243894844265583,-42.236162380068045
barão do triunfo,RS,-30.430208999999948,-51.78409549999997
bastos,SP,-21.921257645470455,-50.73237742419828
bataguassu,MS,-21.7156472573933,-52.42268536682221
bataipora,MS,-22.299018570485877,-53.27314351641425
batalha,AL,-9.674351094872717,-37.12751526212655
batalha,PI,-4.0238882549295365,-42.075627863236555
batatais,SP,-20.89297727758808,-47.585052012762034
batateira,PE,-8.56167727751966,-35.829577087670856
bataypora,MS,-22.2967443482998,-53.269572350465914
batayporã,MS,-22.296453135378865,-53.268849871065676
batinga,BA,-12.933428437159534,-38.49847245588348
baturite,CE,-4.33336700306396,-38.87871631908669
baturité,CE,-4.330360492817438,-38.87569610628801
bauru,SP,-22.32668283930309,-49.06668248533467
bayeux,PB,-7.130429616156728,-34.92421245463332
baía formosa,RN,-6.369812033332094,-35.00819567861394
bebedouro,SP,-20.943887781782358,-48.48609167648656
beberibe,CE,-4.1840316734497085,-38.12315905366045
bela cruz,CE,-3.056024276098674,-40.171418039839054
bela vista,MS,-22.10100954188988,-56.53751823538703
bela vista da caroba,PR,-25.880183926753112,-53.66668915514505
bela vista de goias,GO,-16.970865848615613,-48.95050687356345
bela vista de goiás,GO,-16.97038796595958,-48.952506898428474
bela vista de minas,MG,-19.8280287267131,-43.09062549172086
bela vista do maranhao,MA,-3.7449621799685744,-45.26018199694684
bela vista do paraiso,PR,-22.994489452737884,-51.19769456622427
bela vista do paraíso,PR,-22.989293251388894,-51.196987248443584
bela vista do piaui,PI,-7.971796118705034,-41.87155806165832
bela vista do piauí,PI,-7.970188270525646,-41.87049460375397
bela vista do toldo,SC,-26.27505963385652,-50.464521654672744
belagua,MA,-3.159153890484589,-43.50459389006024
belem,AL,-9.583374640108921,-36.47019908728879
belem,PA,-1.4182009228719605,-48.469510667264856
belem,PB,-6.698187892953499,-35.536820880945584
belem de maria,PE,-8.625480433374818,-35.839819929281575
belem de sao francisco,PE,-8.751275930642144,-38.96317707395736
belem do brejo do cruz,PB,-6.188313308051183,-37.535719432641166
belem do piaui,PI,-7.375124494010417,-40.967587745568785
belem do sao francisco,PE,-8.72354646646816,-38.960161299442156
belford roxo,RJ,-22.73723765866893,-43.384292462811366
belmiro braga,MG,-21.949206158065262,-43.41387968671577
belmonte,BA,-15.861264621846493,-38.87879318176837
belmonte,SC,-26.84354627234118,-53.58044131414608
belo campo,BA,-15.03719803840138,-41.26055350504629
belo horizonta,MG,-19.83300724340701,-43.99449835304972
belo horizonte,MG,-19.908772138018296,-43.95754937318114
belo jardim,PE,-8.46834442198707,-36.62115667954435
belo oriente,MG,-19.23666264280913,-42.476659940437166
belo vale,MG,-20.410874626609804,-44.0257580869963
belterra,PA,-2.6990375697557347,-54.92182694510642
belágua,MA,-3.1610826235923515,-43.5049708666479
belém,PA,-1.4217871628196006,-48.4711290302085
belém,PB,-6.695727063715224,-35.53979824621589
belém do são francisco,PE,-8.735035194555874,-38.96030722860754
beneditinos,PI,-5.454322625376379,-42.361210584703585
benedito leite,MA,-7.2185315166586035,-44.55507182209266
benedito novo,SC,-26.78186783336413,-49.377719976799675
benevides,PA,-1.3504592633478254,-48.25553277806337
benfica,PA,-20.90514878251563,-51.36969582554069
benjamin constant,AM,-4.416761866331178,-70.03170496203414
benjamin constant do sul,RS,-27.515351327457264,-52.593046103938
bento de abreu,SP,-21.273504073780863,-50.811250271092526
bento fernandes,RN,-5.6903164211774175,-35.820092861782804
bento goncalves,RS,-29.165160642374875,-51.51418462848584
bento gonçalves,RS,-29.163381213950583,-51.51482966374492
bentopolis,PR,-22.92991951439633,-51.71445908234631
bentópolis de minas,MG,-16.374894438486837,-45.01540335193893
bequimao,MA,-2.450916218709413,-44.78730267622174
bequimão,MA,-2.4529382284995207,-44.78678102950627
berilo,MG,-16.9227674102542,-42.478475011191115
berizal,MG,-15.620342230243962,-41.74589223879504
bernardino batista,PB,-6.452490182965374,-38.55190222505675
bernardino de campos,SP,-23.01553540122101,-49.47743449963315
bernardo do mearim,MA,-4.630665850384268,-44.761597381631695
bernardo sayao,TO,-7.8964815408087885,-48.90692496744047
bernardo sayão,TO,-7.879441800924923,-48.897008900806995
bertioga,SP,-23.818390396829994,-46.080623703430774
bertolinia,PI,-7.639522233366965,-43.95226761922226
bertolínia,PI,-7.640285764295311,-43.953279489169454
bertopolis,MG,-17.02933112374303,-40.55677849878938
bertópolis,MG,-17.01972424243321,-40.55169336218939
betania,PE,-8.227327535915133,-38.011310378119774
betania do piaui,PI,-8.144855429116632,-40.796006658013624
betim,MG,-19.954066182129804,-44.166961626958226
betânia,PE,-8.271097708879145,-38.03676049981466
betânia do piauí,PI,-8.148704222154537,-40.79484168557659
bezerros,PE,-8.236645735574934,-35.754820871795225
bh,MG,-19.8146364410237,-43.95277231167415
bias fortes,MG,-21.607145357582965,-43.75713266137063
bicas,MG,-21.718907282263547,-43.065123888195494
bicuiba,MG,-20.081785286036094,-42.34351982094584
biguacu,SC,-27.504870090577512,-48.64971059986323
biguaçu,SC,-27.50469531263698,-48.64853239074065
bilac,SP,-21.40261065132153,-50.47539635637737
biquinhas,MG,-18.78139797359643,-45.50524614116216
birigui,SP,-21.29148593883686,-50.33834102472454
birigüi,SP,-21.289590496832325,-50.33711801958716
biritiba mirim,SP,-23.57340891435705,-46.043740785145744
biritiba-mirim,SP,-23.574570581031892,-46.040097597586545
biritinga,BA,-11.621067370397462,-38.80797809110514
bitupita,CE,-2.892767700852829,-41.27222373747967
bituruna,PR,-26.159429770563207,-51.54775703701614
bizarra,PE,-7.9511256783138675,-34.87575706855559
blumenau,SC,-26.899545050254957,-49.08859270065089
boa esperanca,ES,-18.53515279520426,-40.30248661602407
boa esperanca,MG,-21.09475282042273,-45.56166521298672
boa esperanca,MT,-13.424046110691792,-52.46971449711265
boa esperanca,PR,-24.243239072688613,-52.78709354826843
boa esperanca,RJ,-22.753137082180437,-42.53722011371729
boa esperanca do iguacu,PR,-25.63575597391653,-53.21454879705403
boa esperanca do sul,SP,-21.993393564514324,-48.390385180509796
boa esperança,ES,-18.540430213587438,-40.29342930400196
boa esperança,MG,-21.0976268559901,-45.56044486550812
boa esperança,MT,-17.884053091961537,-41.502370447634405
boa esperança,PR,-24.242226363678412,-52.78638161934759
boa esperança,RJ,-22.749496318328696,-42.52623015036389
boa esperança do iguaçu,PR,-25.636575922786463,-53.21359392893352
boa esperança do sul,SP,-21.99577605293234,-48.38866113515574
boa hora,PI,-4.395196894818568,-42.11476240246768
boa nova,BA,-14.364075864484672,-40.207777739857676
boa saude,RN,-6.154928704599536,-35.605784299305355
boa sorte,RJ,-21.84685463891488,-42.26862716198938
boa uniao,BA,-4.5962448091645465,-42.85451673739823
boa uniao de itabirinha,MG,-18.497173641784165,-41.30038404250193
boa união de itabirinha,MG,-18.495928709892233,-41.30035327752185
boa ventura,PB,-7.421351004260938,-38.218114892085985
boa ventura,RJ,-21.207949118544864,-41.88977443369495
boa ventura de sao roque,PR,-24.877199713299973,-51.554705523771794
boa ventura de são roque,PR,-24.880402801231423,-51.54402999963926
boa viagem,CE,-5.124593099187569,-39.731296654198324
boa vista,MT,-16.14474999999996,-54.66108499999996
boa vista,PB,-7.264358759927982,-36.241541102633875
boa vista,RR,2.825210967747904,-60.69812038919219
boa vista da aparecida,PR,-25.437885479760887,-53.40870273133838
boa vista das missoes,RS,-27.66180964091393,-53.316760498959184
boa vista das missões,RS,-27.660478128671887,-53.31681405644891
boa vista de minas,MG,-18.842656993637767,-43.24709547353383
boa vista do burica,RS,-27.669043977859744,-54.11112152682007
boa vista do buricá,RS,-27.66711952792061,-54.11116942299359
boa vista do cadeado,RS,-28.57759560610713,-53.813659189325975
boa vista do gurupi,MA,-1.7953126147499632,-46.291986642937815
boa vista do incra,RS,-28.81866562020304,-53.38681136651255
boa vista do ramos,AM,-2.9689044784777163,-57.58534427674386
boa vista do sul,RS,-29.34647313882286,-51.67305377843535
boa vista do tupim,BA,-12.67449379312781,-40.64412066110824
boa vista dos andradas,SP,-26.294413159893192,-48.82067181031083
boca da mata,AL,-9.644246828974058,-36.21371252866984
boca do acre,AM,-8.776118569514903,-67.38609416403365
bocaina,PI,-6.9457647483091405,-41.322247410794844
bocaina,SP,-22.141866295406963,-48.527803199195596
bocaina de minas,MG,-22.17654212511453,-44.422894991656165
bocaina do sul,SC,-27.743486097921124,-49.924365208577605
bocaiuva,MG,-17.11610103098384,-43.812085415930156
bocaiuva do sul,PR,-25.21022891904481,-49.11201801929613
bocaiúva,MG,-17.11102183929937,-43.81657082576563
bocaiúva do sul,PR,-25.21426886937428,-49.110192729360016
bocaína do sul,SC,-27.74570942949581,-49.94526826921005
bodo,RN,-5.988987926410246,-36.41243181692128
bodoco,PE,-7.778456689884689,-39.93666448272335
bodocó,PE,-7.780480154358987,-39.939235228215765
bodoquena,MS,-20.55050575634081,-56.67835671179238
bofete,SP,-23.110602286087335,-48.262470448819585
boituva,SP,-23.287426948305722,-47.670586146714506
bom conselho,PE,-9.176329291731035,-36.68004491131996
bom despacho,MG,-19.740337139221076,-45.25863430864746
bom fim do bom jesus,SP,-23.28867817281418,-47.0565400118141
bom jardim,MA,-3.5436895442774707,-45.60876343075263
bom jardim,PE,-7.229047664344074,-36.92523870444332
bom jardim,RJ,-22.159626276586007,-42.416886455153225
bom jardim da serra,SC,-28.327967366564394,-49.62151733262487
bom jardim de goias,GO,-16.202046608327226,-52.17443509260943
bom jardim de goiás,GO,-16.20087488637348,-52.17489687124238
bom jardim de minas,MG,-21.94855498599183,-44.186545939437465
bom jardim do sul,PR,-25.029845816815577,-50.80340415548995
bom jesus,GO,-18.216193667349557,-49.73578416239238
bom jesus,PB,-6.871453499999966,-38.64776899999997
bom jesus,PI,-9.074950129235898,-44.36431355870326
bom jesus,RN,-5.988699081605762,-35.58207602043339
bom jesus,RS,-28.671372612424097,-50.434122638440925
bom jesus,SC,-26.734159431290017,-52.39024293725593
bom jesus da lapa,BA,-13.256014019878709,-43.409875811549746
bom jesus da penha,MG,-21.018142161416034,-46.518655621662255
bom jesus da serra,BA,-14.373890293319775,-40.50720409145588
bom jesus das selvas,MA,-4.502895843702964,-46.85549096141207
bom jesus de goias,GO,-18.2144224778027,-49.75477552139631
bom jesus do amparo,MG,-19.70770771675895,-43.475249717636665
bom jesus do araguaia,MT,-12.189028400869223,-51.574837023112714
bom jesus do galho,MG,-19.723406801685012,-42.523411634632275
bom jesus do itabapoana,RJ,-21.134261478552066,-41.67656312342376
bom jesus do norte,ES,-21.126567901967178,-41.67280614857445
bom jesus do sul,PR,-26.194806599274045,-53.598674520490796
bom jesus do tocantins,PA,-5.046901966109477,-48.59968051294414
bom jesus do tocantins,TO,-8.965545990706262,-48.16566688556878
bom jesus dos perdoes,SP,-23.13830725453356,-46.46823470213135
bom jesus dos perdões,SP,-23.138053602009393,-46.471401280572
bom lugar,MA,-4.372368563825891,-45.0316429093172
bom principio,RS,-29.47999201128738,-51.359206112516084
bom principio do piaui,PI,-3.1890945489413034,-41.64084687872294
bom princípio,RS,-29.486434466950357,-51.35946621670379
bom progresso,RS,-27.55257645834928,-53.863258384577684
bom repouso,MG,-22.470052425523427,-46.14709172537161
bom retiro,SC,-27.79835761038368,-49.488573081200194
bom retiro da esperanca,SP,28.008978338034268,-15.536867177679133
bom retiro do sul,RS,-29.60072374263251,-51.93419702846099
bom sucesso,MG,-21.032900753434287,-44.756859464215616
bom sucesso,PB,-6.44610968962619,-37.92778252965016
bom sucesso,PR,-23.709291485041188,-51.76783096410405
bom sucesso de itarare,SP,-24.31984235466594,-49.13943525230847
bom sucesso de itararé,SP,-24.318982780118134,-49.140622856776616
bom sucesso do sul,PR,-26.074920777557626,-52.83520327707475
bombinhas,SC,-27.15657253033492,-48.50320378589786
bonfim,MG,-20.307454205352247,-44.07245594544801
bonfim,RR,3.3621150581128316,-59.83322248785685
bonfim paulista,SP,-21.25404543801636,-47.815211223210696
bonfinopolis,GO,-16.611698898279425,-48.96399857516921
bonfinopolis de minas,MG,-16.56260962917525,-46.00143522737828
bonfinópolis,GO,-16.619972889538836,-48.962837083074405
bonfinópolis de minas,MG,-16.562141275069045,-45.98543888506295
boninal,BA,-12.709313125048306,-41.830256238939036
bonito,BA,-11.968975435554178,-41.2665485580868
bonito,MS,-21.126740609138764,-56.48694326023459
bonito,PA,-1.3638164086206872,-47.307780092892294
bonito,PE,-8.47190791671445,-35.73274106642819
bonito de minas,MG,-15.323332390913766,-44.75789991476468
bonito de santa fe,PB,-7.313342946555163,-38.51421804158558
bonopolis,GO,-13.64952089553434,-49.830068884352784
bonópolis,GO,-13.649852774530087,-49.83210913621961
boqueirao,PB,-7.481980700141655,-36.13212790243057
boqueirao do leao,RS,-29.302864715682688,-52.42991482611905
boqueirao do piaui,PI,-4.48533235878779,-42.11271221667127
boqueirão do leão,RS,-29.300057324776542,-52.42878707261995
boqueirão do piauí,PI,-4.48533235878779,-42.11271221667127
boquim,SE,-11.147501176858324,-37.61894393927415
boquira,BA,-12.796852188705783,-42.71130889843319
boraceia,SP,-22.19615762773832,-48.77774974951167
boracéia,SP,-22.196034502860012,-48.77910074888917
borba,AM,-4.391270069074021,-59.59364849599482
borborema,SP,-21.620786398855515,-49.074917989060566
borda da mata,MG,-22.26258413023529,-46.1711239405763
borda do campo,PR,-25.39299943444361,-49.02960304918533
borebi,SP,-22.571542526863237,-48.97174504580476
borrazopolis,PR,-23.9405510974616,-51.58504073277295
borrazópolis,PR,-23.939112113964942,-51.585902661321846
bossoroca,RS,-28.727270770936784,-54.9107887611147
botelho,SP,-22.22100814602821,-47.3001460600237
botelhos,MG,-21.647144448066587,-46.39847215608336
botucatu,SP,-22.88211253545992,-48.44701223244297
botumirim,MG,-16.86530870795646,-42.99565644634915
botupora,BA,-13.379137938870217,-42.52226591103274
botuporã,BA,-13.379900509236787,-42.52258222509798
botuvera,SC,-27.123474003206553,-48.970221153209835
botuverá,SC,-27.032153787170493,-48.88627960862962
bozano,RS,-28.35576747635835,-53.750724886687756
braco do norte,SC,-28.273893055843022,-49.16518653647989
braco do rio,ES,-19.404535686809382,-40.128327809178415
braco do trombudo,SC,-27.364980174531468,-49.889378075808764
braga,RS,-27.616563469868108,-53.74094035229738
braganca,PA,-1.0594817318048644,-46.768546320047975
braganca paulista,SP,-22.948420353567787,-46.54131547902721
braganey,PR,-24.818696918017,-53.119169319626124
bragantina,PR,-24.60938923170033,-53.616028508061255
bragança,PA,-1.055416430386323,-46.767410249909226
bragança paulista,SP,-22.949942717584157,-46.54157964873189
branquinha,AL,-9.246908507097618,-36.01437848468856
bras pires,MG,-20.853780123449788,-43.24200658245486
brasil novo,PA,-3.3029288946406257,-52.53943255841229
brasilandia,MS,-21.268003390969508,-52.07109537480082
brasilandia de minas,MG,-17.00452873265765,-46.00445130598515
brasilandia do sul,PR,-24.19706425454043,-53.52794252242622
brasilandia do tocantins,TO,-8.335310928977552,-48.47834811623014
brasileia,AC,-11.00988952211051,-68.74718419760572
brasileira,PI,-4.130638188553197,-41.778505119424246
brasilia,DF,-15.81107265948822,-47.97170487788516
brasilia de minas,MG,-16.21376607053118,-44.43326343663188
brasilândia,MS,-21.255384556389036,-52.03525529993214
brasilândia de minas,MG,-17.006806551476433,-46.0122837994958
brasilândia do sul,PR,-24.19748044523278,-53.5260827205455
brasilândia do tocantins,TO,-8.390462548916972,-48.4864313285401
brasiléia,AC,-10.999622670698837,-68.75236108183967
brasitania,SP,-20.280593376469294,-50.255185629721325
brasitânia,SP,-20.27992376887236,-50.25579885917082
brasnorte,MT,-12.130307200299066,-57.998921444199546
brasopolis,MG,-22.482302187197977,-45.61952431922894
brasília,DF,-15.809959206893563,-47.95832383584579
brasília de minas,MG,-16.22854264321944,-44.438449599682706
brasópolis,MG,-22.473087281990843,-45.61672600019431
brauna,SP,-21.504276023714116,-50.32234439497585
braunas,MG,-19.05322863884113,-42.718129170680385
brazabrantes,GO,-16.43241381438336,-49.387132091166634
brazlandia,DF,-15.68103412371677,-48.196386392982674
brazlândia,DF,-15.6665580045204,-48.20162900644187
brazopolis,MG,-22.473967975486453,-45.614997563089055
brazópolis,MG,-22.473258796168654,-45.61600201080715
braço do norte,SC,-28.275844111802492,-49.16530585933412
braço do rio,ES,-19.18865674952664,-40.11717391120304
braço do trombudo,SC,-27.3593813491026,-49.881358365211796
braúnas,MG,-19.830568780124082,-44.0095593118752
brejetuba,ES,-20.14768728208619,-41.29158581823656
brejinho,PE,-7.349397090903665,-37.28588974324564
brejinho,RN,-6.188445197025403,-35.356499973018856
brejinho de nazare,TO,-11.018089399089433,-48.57082448171016
brejinho de nazaré,TO,-11.016433083546024,-48.56702660191019
brejo,MA,-3.6796750053374514,-42.753229897613146
brejo alegre,SP,-21.16764670962964,-50.18544718550434
brejo bonito,MG,-21.1255342558629,-56.48365874003585
brejo da madre de deus,PE,-8.11975896574784,-36.34744143794997
brejo de areia,MA,-4.330462368659083,-45.58715125529508
brejo do cruz,PB,-6.347542647198111,-37.4999982744409
brejo do piaui,PI,-8.20638304669793,-42.83462700322384
brejo dos santos,PB,-6.376879978247281,-37.825443446792654
brejo grande,SE,-10.43007145626256,-36.46656089630383
brejo grande do araguaia,PA,-5.717254449751337,-48.41542179867867
brejo santo,CE,-7.48940318775888,-38.98429194756268
brejoes,BA,-13.10272922821882,-39.793072654373695
brejolandia,BA,-12.48500333261069,-43.960583866410175
brejolândia,BA,-12.483972169004064,-43.9635274351195
brejão,PE,-9.024839005157318,-36.57020044972058
brejões,BA,-13.093643266012302,-39.84667578806543
breu branco,PA,-3.7749690156536695,-49.564171450996284
breves,PA,-1.6827641076623434,-50.47971983783625
britania,GO,-15.242948120042836,-51.16473824558986
britânia,GO,-15.244768551470404,-51.16333482677467
brochier,RS,-29.559863364757245,-51.590972043198455
brodowski,SP,-20.988926911431513,-47.654618703557226
brotas,SP,-22.282154968038324,-48.12510155957027
brotas de macaubas,BA,-12.008840195810873,-42.61777617811805
brotas de macaúbas,BA,-11.999154852435518,-42.62872601396143
brumadinho,MG,-20.139562408781476,-44.17616470499101
brumado,BA,-14.205460464439602,-41.671112056820846
brunopolis,SC,-27.320505126008772,-50.84118001589893
brunópolis,SC,-27.30980689412,-50.838562432642696
brusque,SC,-27.100857082718758,-48.91495449463355
brás pires,MG,-20.85016069177208,-43.2466995477286
bueno brandao,MG,-22.442842181129254,-46.34874000609387
bueno brandão,MG,-22.441902270933717,-46.34891870241103
buenopolis,MG,-17.874676966439893,-44.17524203029235
buenos aires,PE,-7.7244413749003495,-35.327301071340315
buenópolis,MG,-17.874648546962348,-44.1496166776133
buerarema,BA,-14.95780133672066,-39.30342647544837
bugre,MG,-19.429537697924797,-42.25735678929433
bugre,PR,-25.581093162340828,-48.354020791139256
buique,PE,-8.620704600183165,-37.14894582726643
bujari,AC,-9.798650525705352,-68.00424668340727
bujaru,PA,-1.5148239242263595,-48.04169020745011
burarama,ES,-20.102756525161652,-40.562648649470844
buri,SP,-23.799252900703568,-48.60001796917145
buritama,SP,-21.067287508771535,-50.14440187114213
buriti,MA,-3.944243935492534,-42.914429901916115
buriti,RS,-28.29677952743852,-54.39350272277933
buriti alegre,GO,-18.13450400303502,-49.04126187425261
buriti bravo,MA,-5.839493016580788,-43.83427108343794
buriti de goias,GO,-16.182178187560524,-50.433577707273614
buriti de goiás,GO,-16.186006579457462,-50.4356586157793
buriti do tocantins,TO,-5.321205248711932,-48.21111239878048
buriti dos lopes,PI,-3.1774929264642595,-41.869414966186056
buriti dos montes,PI,-5.31409589400402,-41.09558785587357
buriticupu,MA,-4.316757277478371,-46.45803913868449
buritinopolis,GO,-14.455764796962804,-46.43602351126784
buritinópolis,GO,-14.455764796962804,-46.43602351126784
buritirama,BA,-10.715085941727198,-43.6342828669913
buritirama,MA,-5.588774989490775,-47.01392078202952
buritirana,MA,-5.592697988733042,-47.015022579985484
buritis,MG,-15.62721446009139,-46.42632889398506
buritis,RO,-10.207044126109722,-63.831088871403665
buritizal,SP,-20.19351660532341,-47.70999403830061
buritizeiro,MG,-17.364555680535215,-44.984647236468014
butia,RS,-30.119547197334462,-51.96147500898495
butiá,RS,-30.12137059954265,-51.96737374829131
buzios,RJ,-22.766488140198565,-41.91844962829506
buíque,PE,-8.619424625067728,-37.15571418489471
bálsamo,SP,-20.737083992742104,-49.582216602801395
búzios,RJ,-22.764122629702122,-41.916243718666614
caapiranga,AM,-3.328865403622226,-61.21001554046119
caapora,PB,-7.51697764867021,-34.91528625127435
caaporã,PB,-7.519593362694998,-34.91512155675525
caarapo,MS,-22.632716058142215,-54.82406587892792
caarapó,MS,-22.632433186511207,-54.823906296075435
caatiba,BA,-14.978179516346016,-40.40915518625452
cabaceiras,PB,-7.489735281923311,-36.288135332208654
cabaceiras do paraguacu,BA,-12.565061167027597,-39.18037499574727
cabaceiras do paraguaçu,BA,-12.535939999999924,-39.19085999999993
cabeceira grande,MG,-16.055668176736315,-47.143652358670614
cabeceiras,GO,-15.80524926175744,-46.93058467081313
cabeceiras do piaui,PI,-4.476650188397818,-42.30833007710929
cabedelo,PB,-7.017697062131602,-34.83758108636303
cabixi,RO,-13.486852444177552,-60.53788286186566
cabo de santo agostinho,PE,-8.276133491122447,-35.01795551131919
cabo frio,RJ,-22.854990833265266,-42.02617051376144
cabo verde,MG,-21.47382328040176,-46.39609170165559
cabralia paulista,SP,-22.456859496746013,-49.33732123027709
cabreuva,SP,-23.27145899781987,-47.08277837971555
cabreúva,SP,-23.27754554629432,-47.08688205869965
cabrobo,PE,-8.505671018021951,-39.30903462270699
cabrobó,PE,-8.512089876468657,-39.3094001076498
cabrália paulista,SP,-22.45527504789832,-49.338378047006934
cacador,SC,-26.779161148380975,-51.0111498568516
cacapava,SP,-23.102906919560233,-45.7056221363243
cacapava do sul,RS,-30.514470936651445,-53.48837668297485
cacaratiba,MG,-17.257499999999936,-43.04360999999994
cacarema,MG,-16.042146600041324,-43.55337281099699
cacaulandia,RO,-10.338008379947558,-62.90938921854367
cacaulândia,RO,-10.342302783748051,-62.89542006287164
cacequi,RS,-29.883498364402605,-54.82633070054312
caceres,MT,-16.065476759598656,-57.6861734881221
cachoeira,BA,-12.596261024659881,-38.96863572581739
cachoeira alegre,MG,-21.23701663907592,-42.30685711653731
cachoeira alta,GO,-18.73111677835222,-50.95508760157414
cachoeira da prata,MG,-19.52424896323175,-44.4518578727129
cachoeira de goias,GO,-16.667508466343946,-50.64635457361353
cachoeira de goiás,GO,-16.667409369495473,-50.644746196609496
cachoeira de minas,MG,-22.355813970805112,-45.78233456696949
cachoeira de pajeu,MG,-15.96369190332583,-41.48928576054789
cachoeira de pajeú,MG,-15.958116228652914,-41.48512527679569
cachoeira de piria,PA,-1.7645177662257043,-46.54153000205609
cachoeira de santa cruz,MG,-21.70276794062497,-43.43829803268959
cachoeira do arari,PA,-1.0132279577706589,-48.96197529268475
cachoeira do brumado,MG,-20.39476345719793,-43.27792861411475
cachoeira do campo,MG,-20.338073014062605,-43.682570702151004
cachoeira do piria,PA,-1.7575178354696013,-46.54430674407903
cachoeira do piriá,PA,-1.8613629989624711,-46.48432591182498
cachoeira do sul,RS,-30.033962971128897,-52.9001114044151
cachoeira dos indios,PB,-6.926267395956544,-38.68034156893037
cachoeira dos índios,PB,-6.927813744793552,-38.67452910218058
cachoeira dourada,GO,-18.493615761637802,-49.49093381055509
cachoeira dourada,MG,-18.531781647695585,-49.49432301857276
cachoeira paulista,SP,-22.665773825235462,-45.00905168465506
cachoeiras de macacu,RJ,-22.47307051169057,-42.65813295738803
cachoeirinha,PE,-8.48900749300668,-36.23606169370395
cachoeirinha,RS,-29.92583764692,-51.08405863874132
cachoeirinha,TO,-6.120011612921714,-47.920325801633
cachoeiro de itapemirim,ES,-20.846480708091157,-41.12618532948111
cacimba de dentro,PB,-6.641588616071431,-35.79174833832887
cacimbas,PB,-7.211424306162443,-37.05905566831004
cacimbinhas,AL,-9.401185056413858,-36.982709039077335
cacique doble,RS,-27.772162553937694,-51.66196048031397
cacoal,RO,-11.43225261490951,-61.45064715626852
caconde,SP,-21.528683722343338,-46.64505089436829
cacu,GO,-18.5673587432608,-51.13470747272599
cacule,BA,-14.50096265688268,-42.223401577001134
caculé,BA,-14.50233928166042,-42.22199273300671
caem,BA,-11.121504876547021,-40.37891560895317
caetano mendes,PR,-24.623004499999986,-50.64059112499999
caetanopolis,MG,-19.303949145280423,-44.40840204890503
caetanos,BA,-14.340477197018577,-40.907727152167915
caetanópolis,MG,-19.301558338263654,-44.4175889175568
caete,MG,-19.884175345912375,-43.66472664657097
caetes,PE,-8.775286049018238,-36.62542247309882
caetite,BA,-14.063922388006693,-42.48750601198863
caetité,BA,-14.064198216919982,-42.48779167746477
caeté,MG,-19.886325204893026,-43.6656059147153
caetés,PE,-8.77291947969472,-36.62397850719389
cafarnaum,BA,-11.687021586135383,-41.46565830888451
cafe,ES,-20.771505660340384,-41.53560726330037
cafeara,PR,-22.790333812014378,-51.71560039329486
cafelandia,PR,-24.621144273795064,-53.32243786888663
cafelandia,SP,-21.80529267645268,-49.603882829520636
cafelândia,PR,-24.627269922387118,-53.32217316642254
cafelândia,SP,-21.793285973340417,-49.59429769755429
cafezal do sul,PR,-23.90412223411933,-53.51358724176113
caiabu,SP,-22.01608919110996,-51.235956619346624
caiana,MG,-20.69789948474924,-41.922451276616826
caiaponia,GO,-16.95693459398332,-51.813499923367715
caiapônia,GO,-16.95544198689595,-51.81414050181624
caibate,RS,-28.289767690261236,-54.639814352141535
caibaté,RS,-28.292346073234174,-54.64068231252179
caibi,SC,-27.074346228038745,-53.24935701690006
caicara,CE,-2.862602277761996,-40.41014884711262
caicara,PB,-6.617638777411675,-35.469005611066635
caicara,RS,-27.271840983960125,-53.43987171930051
caicara do norte,RN,-5.063401589904886,-36.05169862426159
caicara do rio do vento,RN,-5.758777020528164,-36.00117023242199
caico,RN,-6.4643598376771605,-37.093658603636
caicó,RN,-6.461877382762304,-37.092893791688184
caieiras,SP,-23.36513526194082,-46.73566482431414
cairu,BA,-13.484783183416193,-39.02506035910309
caiua,SP,-21.83180213684323,-51.989949181786905
caiuá,SP,-21.83116868698556,-51.991048104441255
caiçara,RS,-27.275169134518997,-53.4324284338153
caiçara do norte,RN,-5.063287095071034,-36.04941731658721
caiçara do rio do vento,RN,-5.7585654452271,-36.002305965220046
cajamar,SP,-23.36958674793033,-46.84232153418721
cajapio,MA,-2.8762657761064014,-44.672934084080396
cajari,MA,-3.321816931557347,-45.01488892761193
cajati,SP,-24.72819885032075,-48.1128044045457
cajazeiras,PB,-6.887745156328404,-38.55894250887899
cajazeiras do piauí,PI,-6.794131282002256,-42.39348579829666
cajobi,SP,-20.877875377557153,-48.81096248940023
cajueiro,AL,-9.398762700999793,-36.146956946374715
cajueiro da praia,PI,-2.926654869129684,-41.34756170330251
cajuri,MG,-20.788628855033426,-42.79602770750053
cajuru,SP,-21.27443256482517,-47.30547622191414
calcado,PE,-8.74221182227642,-36.33608799281209
calcoene,AP,2.496281545182123,-50.9521241058562
caldas,MG,-21.91385284576575,-46.39241187788379
caldas brandao,PB,-7.161965454299922,-35.34996167963895
caldas novas,GO,-17.73942377072625,-48.6198526311481
caldazinha,GO,-16.714290709454747,-49.0009401582621
caldeirao grande,BA,-11.107471772485226,-40.07027331427583
caldeirao grande do piaui,PI,-7.332965096575639,-40.63725614125087
caldeirão grande,BA,-11.107656116962836,-40.07087143866794
caldeirão grande do piauí,PI,-7.330757405737734,-40.63549818681714
calheiros,RJ,-21.01608698830817,-41.71691388904984
california,PR,-23.66537496878723,-51.356733136530615
california da barra,RJ,-22.282201032815,-43.93287506539874
california da barra (barra do pirai),RJ,-22.467331109006007,-43.82941875655762
califórnia,PR,-23.66621514609523,-51.35595990681042
califórnia da barra,RJ,-16.924394095365948,-43.28947808933714
calixto,MG,-19.25538608847936,-41.15222939716073
calmon,SC,-26.602931196443897,-51.099089272478885
calumbi,PE,-7.9393452387802625,-38.15328763426178
camacan,BA,-15.414350130540774,-39.49559371209775
camacari,BA,-12.701748042473282,-38.32394334765695
camacho,MG,-20.62674426960462,-45.15581132546862
camalau,PB,-7.89058801791973,-36.82454113285508
camalaú,PB,-7.89086686867335,-36.8260700712358
camamu,BA,-13.949892230855664,-39.11166935758069
camanducaia,MG,-22.756599739046813,-46.13889665947566
camapua,MS,-19.534290220752045,-54.0423870570323
camapuã,MS,-19.537929306701802,-54.04254539458643
camaqua,RS,-30.853336771294757,-51.80821362811722
camaquã,RS,-30.857715935460458,-51.81015042062675
camaragibe,PE,-8.009755163207394,-34.989413061238125
camargo,RS,-28.58947362821235,-52.20432186984822
camaçari,BA,-12.708884018597253,-38.32125391114315
cambara,PR,-23.041490931290042,-50.0755770168954
cambara do sul,RS,-29.04360281440758,-50.1391711723774
cambará,PR,-23.041773953791534,-50.074072893825324
cambará do sul,RS,-29.093093200091708,-50.17187397968077
cambe,PR,-23.287233452139468,-51.25804335403712
cambiasca,RJ,-21.714719999999943,-41.92499999999996
cambira,PR,-23.60488886544814,-51.57907045278063
camboriu,SC,-27.020601318443326,-48.653118198282215
camboriú,SC,-27.0173453899278,-48.65465206650809
cambuci,RJ,-21.572028339290608,-41.910210193163074
cambui,MG,-22.612148646145236,-46.05829967340822
cambuquira,MG,-21.85432094379683,-45.29722726782118
cambuí,MG,-22.60970098655802,-46.057024742703106
cambé,PR,-23.288694295786794,-51.254660260305094
camela,PE,-8.513416771244213,-35.12499301620093
cameta,PA,-2.24654713110536,-49.4988672808216
cametá,PA,-2.2737965843569583,-49.49131888151158
camocim,CE,-2.9042495798412467,-40.846325303002686
camocim de sao felix,PE,-8.359472138121408,-35.76205628537854
camocim de são félix,PE,-8.36406646604207,-35.762745399966335
campanario,MG,-18.23993859726145,-41.728069281393715
campanha,MG,-21.834793738633515,-45.40188042460609
campanário,MG,-18.24029406795396,-41.727992507265284
campestre,AL,-8.85126365360355,-35.56730444996217
campestre,MG,-21.71111120484129,-46.24660902434687
campestre da serra,RS,-28.78856158381966,-51.09526360192388
campestre de goias,GO,-16.762699452853532,-49.69590057519049
campestre do maranhao,MA,-6.215701530505903,-47.289609616235055
campestre do maranhão,MA,-6.172370646991307,-47.367948129854966
campina da lagoa,PR,-24.59241160657905,-52.80415320094136
campina das missoes,RS,-27.986246265965278,-54.84109319235921
campina das missões,RS,-27.99164285550613,-54.84018442479804
campina do monte alegre,SP,-23.57677904095924,-48.446210632219476
campina do simao,PR,-25.11099207263434,-51.79604793071909
campina do simão,PR,-25.10764471808191,-51.808328184575416
campina grande,PB,-7.230652881654893,-35.889078849461505
campina grande do sul,PR,-25.342398065900387,-49.086042958361304
campina verde,MG,-19.53430181412056,-49.50209456509559
campinacu,GO,-13.801380875136651,-48.56655743597762
campinal,SP,-22.863360463031587,-47.05542146591886
campinapolis,MT,-14.456760631884018,-52.82781801515335
campinas,AC,-22.861614714024757,-47.06430302666198
campinas,SP,-22.900868230378116,-47.068536847474405
campinas do piaui,PI,-7.658647247829761,-41.88132840772074
campinas do piauí,PI,-7.661366480036538,-41.88162294178604
campinas do sul,RS,-27.71786642064481,-52.62398227507844
campinaçu,GO,-13.817835221019232,-48.56700680836642
campinorte,GO,-14.312747501518935,-49.15368762101759
campinápolis,MT,-14.35472014711203,-52.86719984352722
campo alegre,AL,-9.783942806324037,-36.35118981411036
campo alegre,SC,-26.172729304378308,-49.33335661102788
campo alegre de goias,GO,-17.63440177971588,-47.77658894586532
campo alegre de lourdes,BA,-9.512052702077947,-43.02384838820656
"campo alegre de lourdes, bahia, brasil",BA,-9.517592726528802,-43.01436628952043
campo alegre de minas,MG,-19.099162775692967,-41.03380534053093
campo alegre do fidalgo,PI,-8.377891550634898,-41.835686326509794
campo azul,MG,-16.505728294096443,-44.811677797827386
campo belo,MG,-20.893764714167883,-45.27561311477834
campo belo do sul,SC,-27.899803209860398,-50.75957818767598
campo bom,RS,-29.67704500881413,-51.060403440177396
campo bonito,PR,-25.03348379417203,-52.99204548871616
campo do brito,SE,-10.750394350095682,-37.49323013983066
campo do meio,MG,-21.109499455456902,-45.8298343383836
campo do tenente,PR,-25.98558970418453,-49.67827341565766
campo ere,SC,-26.395672295213668,-53.08068945665565
campo erê,SC,-26.393683213907384,-53.07915068665899
campo florido,MG,-19.76253702549459,-48.574697713634805
campo formoso,BA,-10.504091563927071,-40.32610420270958
campo grande,AL,-9.959598567747458,-36.790021811922024
campo grande,MS,-20.470062576972285,-54.61578488356733
campo grande,RJ,-22.88500788310081,-43.61612998754906
campo grande,RN,-5.862747520564514,-37.31109127671389
campo grande do piaui,PI,-7.1528547616305245,-41.04754169427389
campo grande do piauí,PI,-7.132673097690731,-41.03475487467024
campo largo,PR,-25.45952017783654,-49.52544188896422
campo limpo de goias,GO,-16.29537410009492,-49.09070420649235
campo limpo paulista,SP,-23.21221676734244,-46.77576640852021
campo magro,PR,-25.375606922660335,-49.38601129666979
campo maior,PI,-4.830288661012602,-42.16987422607917
campo mourao,PR,-24.037944861514244,-52.377456702165496
campo mourão,PR,-24.038735460984903,-52.37762608578433
campo novo,RS,-27.677040247147954,-53.80714061237942
campo novo de rondonia,RO,-10.510701096008964,-63.70717453488786
campo novo de rondônia,RO,-10.56979394338664,-63.62269401887364
campo novo do parecis,MT,-13.72672691576459,-57.90834821580805
campo redondo,RN,-6.240326172046619,-36.18401079847696
campo verde,MT,-15.55075630136651,-55.17606019140091
campos altos,MG,-19.69675757095511,-46.169855128235056
campos belos,GO,-13.03716354927162,-46.769693978198795
campos borges,RS,-28.886237588991257,-53.00127999192428
campos de cunha,SP,-22.95340712430372,-44.84849926748931
campos de julio,MT,-13.723196103777832,-59.25822589137533
campos de júlio,MT,-13.722982227998088,-59.259210868407465
campos do jordao,SP,-22.736601126761776,-45.58673471592268
campos do jordão,SP,-22.737363079498273,-45.58474460319417
campos dos goytacaze,RJ,-21.77725700490737,-41.33030736721621
campos dos goytacazes,RJ,-21.76135912690406,-41.32067953101643
campos gerais,MG,-21.23678866810368,-45.75998487562615
campos lindos,TO,-7.988859504139731,-46.801450129454786
campos novos,SC,-27.399055235300438,-51.22556495735034
campos novos paulista,SP,-22.60526913736948,-49.999641158701735
campos sales,CE,-7.07508607869851,-40.37356961584002
campos verdes,GO,-14.261393536187512,-49.656981872122394
camutanga,PE,-7.408333948577803,-35.27303670858118
cana verde,MG,-21.02026475885193,-45.18247902609396
canaa,MG,-20.6870076858253,-42.61988165672457
canaa dos carajas,PA,-6.523399053843961,-49.876145609317966
canabrava,MG,-17.396001945768713,-45.83278544648309
canabrava do norte,MT,-11.068413678505957,-51.833055069606004
cananeia,SP,-25.00936107761868,-47.93181797896551
cananéia,SP,-25.009044270580617,-47.93246301142819
canapi,AL,-9.115906531545123,-37.60678416721471
canapolis,BA,-13.076577438315946,-44.20189120120898
canapolis,MG,-18.723574837466327,-49.19923017997648
canarana,BA,-11.716138289868587,-41.76715907046423
canarana,MT,-13.542298711925335,-52.27151765494582
canas,SP,-22.704304183920105,-45.05444050515167
canavieiras,BA,-15.673596172003467,-38.949304954144246
canaã,MG,-20.68732672386543,-42.621211261905664
canaã dos carajás,PA,-6.531659134980587,-49.86086497697985
candangolandia,DF,-15.857805951954695,-47.952410009499445
candangolândia,DF,-15.847897083411986,-47.95187053626267
candeal,BA,-11.807405855467286,-39.11979421469924
candeias,BA,-12.720356890330802,-38.589397552074324
candeias,MG,-20.771279225466223,-45.27427943740059
candeias do jamari,RO,-8.822748971584446,-63.64934899789282
candelaria,RS,-29.669682671094105,-52.78900011505099
candelária,RS,-29.67534384675319,-52.78987833724408
candia,SP,-17.656446079679004,-45.43053856476267
candiba,BA,-14.408790876280298,-42.864750118591886
candido de abreu,PR,-24.577047715097326,-51.33161739710627
candido godoi,RS,-27.949268719695553,-54.751866857596845
candido mendes,MA,-1.4726246367314049,-45.72691769273456
candido mota,SP,-22.750865005444716,-50.385493021015826
candido rodrigues,SP,-21.32406291527049,-48.63230524350535
candido sales,BA,-15.483865878376694,-41.24363688548138
candiota,RS,-31.50150939820098,-53.69073915188292
candoi,PR,-25.558575361796553,-52.03295368587646
candói,PR,-25.569537209913307,-52.04981683664507
canela,RS,-29.36052251726866,-50.81028933199042
canelinha,SC,-27.265701646122324,-48.76801763692695
cangas,MT,-19.53942266541352,-55.214986140353986
canguaretama,RN,-6.386413628438627,-35.133344196983515
cangucu,RS,-31.395018960733974,-52.677321254827724
canguçu,RS,-31.399544332209658,-52.675566282924116
canhoba,SE,-10.137258500117037,-36.97136020209352
canhotinho,PE,-8.878666516371505,-36.197745294632774
caninde,CE,-4.355923934309387,-39.31436446037829
caninde de sao francisco,SE,-9.675251100452387,-37.80174366001906
canindé,CE,-4.356001624621591,-39.3145524908868
canindé de são francisco,SE,-9.661574599426707,-37.78802631897619
canitar,SP,-23.00534114145481,-49.78339218605728
canoas,RS,-29.92165587909877,-51.174495237165495
canoinhas,SC,-26.17842967715644,-50.39172922868355
cansancao,BA,-10.669593426966527,-39.49763833288144
cansanção,BA,-10.668507701674848,-39.49768813253393
cantagalo,MG,-18.53054293112112,-42.622874862626375
cantagalo,PR,-25.37598783146171,-52.123015917383825
cantagalo,RJ,-21.974364253989346,-42.354217759630906
cantanhede,MA,-3.635163252640832,-44.37799275723666
canto do buriti,PI,-8.110065701117279,-42.94675725045038
canudos,BA,-9.899970940826488,-39.03349393874104
canudos do vale,RS,-29.32359187374801,-52.23394908710184
canutama,AM,-6.530684341316176,-64.3873912690169
canápolis,BA,-13.074193712971002,-44.20217092745064
canápolis,MG,-18.723065048972206,-49.19957104252014
capanema,PA,-1.1953684358003154,-47.17976923617126
capanema,PR,-25.668572737132873,-53.80378605276697
capao alto,SC,-27.937435798725488,-50.51100141093332
capao bonito,SP,-24.00179411300251,-48.347501357094565
capao da canoa,RS,-29.732205330160408,-50.006646838997376
capao da porteira,RS,-30.092809899462708,-50.694388328298245
capao do cipo,RS,-28.94596016522094,-54.5642863936506
capao do leao,RS,-31.767720904441934,-52.463215559132415
capao novo,RS,-29.65819240457069,-49.95919361702138
caparao,MG,-20.523716387733856,-41.906406757978026
caparaó,MG,-20.524757885584137,-41.90591330128827
capela,AL,-9.412088128308312,-36.081653275183506
capela,SE,-10.504290565975927,-37.053739781815864
capela de santana,RS,-29.681261639690145,-51.3212336075838
capela do alto,SP,-23.477943216104887,-47.73925651476333
capela do alto alegre,BA,-11.671553500430177,-39.835957422492854
capela nova,MG,-20.925626456194642,-43.620797706959266
capelinha,MG,-17.696081081658534,-42.51645734650035
capetinga,MG,-20.621099796616186,-47.05516573685892
capim,PB,-6.898694295025135,-35.19935978722208
capim branco,MG,-19.55004677480242,-44.13373619864855
capim grosso,BA,-11.378158125172405,-40.011743516584225
capinopolis,MG,-18.682870239801783,-49.570117076316386
capinzal,SC,-27.3518641191639,-51.60580689056575
capinzal do norte,MA,-4.717117343720794,-44.32668695525109
capinópolis,MG,-18.68617664494553,-49.568618661401274
capistrano,CE,-4.467730528888049,-38.90132461090233
capitao,RS,-29.27024489370997,-51.98852527830796
capitao andrade,MG,-19.070634881218112,-41.863355753815554
capitao de campos,PI,-4.458259965215851,-41.94160928615899
capitao eneas,MG,-16.556334599661007,-43.749021691961644
capitao gervasio oliveira,PI,-8.495310940467416,-41.84268941803545
capitao leonidas marques,PR,-25.486460684052616,-53.603602567041555
capitao poco,PA,-1.75495611564345,-47.0680835732846
capitolio,MG,-20.616410314116713,-46.046000982398496
capitão,RS,-29.271369968485896,-51.987859392004
capitão andrade,MG,-19.072389025368725,-41.863002586439066
capitão de campos,PI,-4.458795838294562,-41.93978677660782
capitão enéas,MG,-16.32701018790475,-43.71181476751993
capitão gervásio oliveira,PI,-8.496733501277763,-41.8170033103622
capitão leônidas marques,PR,-25.484931969794435,-53.586804205068354
capitão poço,PA,-1.7495128979656913,-47.06245434123174
capitólio,MG,-20.617328151840944,-46.047565153118086
capivari,SP,-22.997483794858958,-47.505725105505064
capivari de baixo,SC,-28.443636588435936,-48.95654041508624
capivari do sul,RS,-30.143817941020927,-50.51140179879618
capixaba,AC,-10.571229718698472,-67.67442149448621
capoeiras,PE,-8.73865456084915,-36.627217324784084
caponga,CE,-4.048294500000004,-38.18788199999999
caporanga,SP,-22.715829205576444,-49.571659661655474
caputira,MG,-20.172671360072147,-42.271083557003195
capão bonito,SP,-24.00267965532038,-48.346083467500485
capão da canoa,RS,-29.73859091528843,-50.01044766867447
capão do cipó,RS,-28.923561,-54.55562625
capão do leão,RS,-31.762761897593805,-52.455986162812565
caraa,RS,-29.79188538695197,-50.44054304173277
carabucu,RJ,-21.21637995297966,-41.58989687408153
carabuçu,RJ,-21.215843207560308,-41.59515776729577
caracarai,RR,1.81052567323499,-61.133741359000645
caracaraí,RR,1.8096025650414027,-61.133328340215485
caracol,MS,-21.989173413934324,-57.01148678614192
caracol,PI,-9.282450114915301,-43.32812466739949
caraguatatuba,SP,-23.637327711077514,-45.413830222993546
carai,MG,-17.187632312940416,-41.69761373976817
caraiba,PE,-7.8035558930517235,-37.79343877138455
caraibas,BA,-14.68685813875673,-41.26788652188727
carajas,PA,-18.941871832888857,-46.96770477985247
carambei,PR,-24.94703148605234,-50.119485398849406
carambeí,PR,-24.950620758562923,-50.11753495694063
caranaiba,MG,-20.874122303355254,-43.73718950300095
caranaíba,MG,-20.87304330711628,-43.7388964862376
carandai,MG,-20.949625817717443,-43.804211698019074
carandaí,MG,-20.95220289019085,-43.80560078549871
carangola,MG,-20.73251603191775,-42.029943765152545
carapebus,RJ,-22.19068358078699,-41.65744656238283
carapicuiba,SP,-23.545578557335283,-46.838775575768985
carapicuíba,SP,-23.544873338924646,-46.83870808411424
caratinga,MG,-19.78687714929477,-42.13746238135898
carauari,AM,-4.7993002475564515,-66.78594378843194
caraubas,RN,-5.790224475947396,-37.5578983984508
caraubas do piaui,PI,-3.476601906534348,-41.84226911523521
caravelas,BA,-17.70676566862526,-39.310128808959114
carazinho,RS,-28.29124464593789,-52.79025576343903
caraá,RS,-29.79134935317908,-50.43409834778823
caraí,MG,-17.186972062864257,-41.69692434313765
caraíbas,BA,-14.724405861180806,-41.260887876945
caraúbas,RN,-5.788437308087376,-37.55964152953034
carbonita,MG,-17.535583399039044,-43.01602044169739
cardeal,SP,-12.99385222547416,-38.4808818461084
cardeal da silva,BA,-11.952583147163717,-37.947373390609584
cardoso,SP,-20.080941806166795,-49.91269317703499
cardoso moreira,RJ,-21.492932392812843,-41.615142419292205
careacu,MG,-21.885450252409267,-45.86007599160712
careaçu,MG,-22.04157893681071,-45.696266137246596
careiro,AM,-3.8192102654006765,-60.36105340442118
careiro da varzea,AM,-3.195967499999992,-59.82835274999999
cariacica,ES,-20.33027859704238,-40.38342691295592
caridade,CE,-4.233341263085579,-39.199808064870076
caridade do piaui,PI,-7.732629803957501,-40.988970448652886
caridade do piauí,PI,-7.732265774697072,-40.98830690485772
carinhanha,BA,-14.29469780358296,-43.770479430033916
carira,SE,-10.359818114055827,-37.704927879705146
carire,CE,-3.9496359103551444,-40.47633166402361
cariri do tocantins,TO,-11.905019372781869,-49.16622321648179
caririacu,CE,-7.04090767765189,-39.289025679358424
caririaçu,CE,-7.038249513099338,-39.281210861307535
cariré,CE,-3.947311229692999,-40.47299254916692
carius,CE,-6.537047249685958,-39.49660967561537
cariús,CE,-6.53350021765372,-39.495267217694284
carlinda,MT,-9.966516824949288,-55.82367240407808
carlopolis,PR,-23.427714770710722,-49.71784559191899
carlos barbosa,RS,-29.298071742278164,-51.50260091138184
carlos chagas,MG,-17.656998028766992,-40.871312653284875
carlos gomes,RS,-27.71592351486283,-51.91482198078577
carlópolis,PR,-23.427714248304383,-49.719166315687374
carmesia,MG,-19.086708905310868,-43.141261823964065
carmo,RJ,-21.932343210229536,-42.607432292496306
carmo da cachoeira,MG,-21.461008557533102,-45.22054433595689
carmo da mata,MG,-20.55966811821635,-44.86917286484877
carmo de minas,MG,-22.12124328966364,-45.124733823993424
carmo do cajuru,MG,-20.2690173748538,-44.822366699776936
carmo do paranaiba,MG,-18.99771386487632,-46.30841177892605
carmo do paranaíba,MG,-18.996879224260635,-46.30644429585237
carmo do rio claro,MG,-20.971610978511645,-46.12132992617943
carmo do rio verde,GO,-15.356895077264507,-49.70235518936493
carmolandia,TO,-7.035135193916087,-48.396199949532765
carmopolis,SE,-10.648555961295953,-36.988290275447774
carmopolis de minas,MG,-20.539386548093038,-44.63621714014996
carmésia,MG,-19.085443785510886,-43.13861018153425
carmópolis,SE,-10.647456706828471,-36.984995026774364
carmópolis de minas,MG,-20.538353721475435,-44.63624566891684
carnaiba,PE,-7.806767112109436,-37.79360013147656
carnaiba do sertao,BA,-9.589271582271095,-40.425445511064936
carnauba dos dantas,RN,-6.5569732071615725,-36.592872035930675
carnaubais,RN,-5.337733879077279,-36.83630689504175
carnaubal,CE,-4.16476401942149,-40.938723359086154
carnaubeira da penha,PE,-8.32090718548556,-38.743239807064
carnaíba,PE,-7.806819608368857,-37.793723689281464
carnaúba dos dantas,RN,-6.556498300128969,-36.591074263873686
carneirinho,MG,-19.71155629339138,-50.721427419246695
carneiros,AL,-9.48430048268659,-37.37451590142348
caroebe,RR,0.8626790805309797,-59.64092950238196
carolina,MA,-7.331741136185456,-47.46865088345743
carpina,PE,-7.845769238796547,-35.25337412701015
carrancas,MG,-21.489134819324796,-44.642577579390846
carrapateira,PB,-7.037671455372667,-38.344700638194816
caruara,SP,-18.43289628656969,-43.57730621812254
caruaru,PE,-8.280838827967246,-35.97142784180055
carutapera,MA,-1.204072657270092,-46.02104434904004
carvalhopolis,MG,-21.778374507705553,-45.84282812821214
carvalhos,MG,-22.001572028993728,-44.461900095595176
carvalhópolis,MG,-21.779779228010206,-45.84279839512811
casa branca,SP,-21.789190389997472,-47.07232828087684
casa grande,MG,-20.793551331647176,-43.93137006997755
casa nova,BA,-9.217165815814736,-40.98046952150122
casca,RS,-28.56573083286525,-51.974619453032226
cascalho rico,MG,-18.605312312450106,-47.88337089557223
cascavel,CE,-4.141297936156377,-38.23017625232706
cascavel,PR,-24.95595615069685,-53.46087017667774
caseara,TO,-9.271498529261464,-49.956697598601686
caseiros,RS,-28.270965774313773,-51.69684129876076
casimiro de abreu,RJ,-22.48761407412746,-42.190019555523406
casinhas,PE,-7.754587487261022,-35.718990928214886
casserengue,PB,-6.780540392896977,-35.819150183307066
cassia,MG,-20.581937660122684,-46.922299671306504
cassia dos coqueiros,SP,-21.28182125375187,-47.1688536049792
cassilandia,MS,-19.107736240551983,-51.76052328560581
cassilândia,MS,-19.116136604987965,-51.732917163185974
castanhal,PA,-1.2920186637442295,-47.92688708882183
castanheira,MT,-11.137907474880812,-58.61019611625611
castanheiras,RO,-11.428080744522138,-61.95102518259382
castelandia,GO,-18.089140556314888,-50.22158475331244
castelo,ES,-20.6053563781088,-41.20519636049413
castelo do piaui,PI,-5.318613129045991,-41.551434065809815
castelo do piauí,PI,-5.323191492293218,-41.54829966516373
castelo dos sonhos,PA,9.049062717536653,-25.170903455030523
castelândia,GO,-18.088616254968382,-50.22165668705296
castilho,SP,-20.866847159290902,-51.49176549174563
castro,PR,-24.794469907209375,-50.000403661641826
castro alves,BA,-12.76647898695337,-39.42239071000821
cataguarino,MG,-21.29435692501821,-42.728764783740445
cataguases,MG,-21.387342415899255,-42.69449766632387
catalao,GO,-18.167495723180785,-47.94370036018742
catalão,GO,-18.167573170161802,-47.94482963703035
catanduva,SP,-21.136969013718122,-48.97216028148743
catanduvas,PR,-25.20574484110391,-53.1536415935325
catanduvas,SC,-27.07029248252711,-51.65997041262784
catarina,CE,-6.13321403407986,-39.87786568296309
catas altas,MG,-20.07559272673594,-43.4075666503638
catas altas da noruega,MG,-20.691445478645058,-43.49812571455393
catende,PE,-8.66542534670664,-35.726036765833456
catigua,SP,-21.052751575607072,-49.059923726924474
catiguá,SP,-21.050897318016336,-49.05938528233668
catingal,BA,-14.045718833379512,-40.562250676629375
catingueira,PB,-7.124193,-37.60752375
catole do rocha,PB,-6.357868390636635,-37.715966957502125
catolândia,BA,-12.313912429551806,-44.85954730196275
catolé do rocha,PB,-6.342542189117105,-37.74399462672429
catu,BA,-12.363840993783475,-38.38186888846312
catu de abrantes,BA,-12.857008533226997,-38.28533203366101
catucaba,SP,-23.246340095815523,-45.20372634808252
catuipe,RS,-28.252330990370716,-54.01363959851672
catuji,MG,-17.10773988241842,-41.66224008048867
catunda,CE,-4.64957625736372,-40.19989030479977
catune,MG,-20.92211345265376,-42.15043498986381
catuni,MG,-16.240050839893893,-43.274954855461424
caturai,GO,-16.446010677483436,-49.495446674302535
caturama,BA,-13.33127591278641,-42.293528970394576
caturaí,GO,-16.443507612119927,-49.49298655597644
catuti,MG,-15.362600130691982,-42.96827364800461
catuípe,RS,-28.25514375191825,-54.01213511424137
caucaia,CE,-3.737584371922989,-38.65032917297563
cavalcante,GO,-13.794652877169758,-47.45838362864478
caxambu,MG,-21.98080481713224,-44.93169566840273
caxambu do sul,SC,-27.157052787302774,-52.88536980002553
caxias,MA,-4.865914904365274,-43.35559678001898
caxias do sul,RS,-29.163658257979236,-51.17937527854719
caxingo,PI,-3.42026003871809,-41.89405656910353
caçador,SC,-26.779838073894236,-51.009670047653856
caçapava,SP,-23.101386979138283,-45.70875939315736
caçapava do sul,RS,-30.511479136887154,-53.49206355446206
caçarema,MG,-16.04073692256279,-43.55496939242047
caçu,GO,-18.562481570998365,-51.13629295879494
caém,BA,-11.111341292896856,-40.39944830856469
ceara mirim,RN,-5.650088359026337,-35.42715178368425
ceara-mirim,RN,-5.63596765719896,-35.42181186145591
ceará-mirim,RN,-5.64274515460203,-35.427340407084365
cedral,MA,-1.999265836243856,-44.53586993015966
cedral,SP,-20.904113556822836,-49.26857484683174
cedro,CE,-6.6046656923026275,-39.06183259002377
cedro,PE,-7.71930957975614,-39.23741460377618
cedro de sao joao,SE,-10.251665065397724,-36.88289550938358
cedro de são joão,SE,-10.249084572265089,-36.88204479052135
cedro do abaete,MG,-19.147111404098304,-45.714540087226354
ceilandia,DF,-15.82349504503801,-48.11658874067231
ceilandia norte,DF,-15.804338904288864,-48.146832143799
ceilândia,DF,-15.8277092813741,-48.117437998809976
celina,ES,-19.851581656301253,-40.57072169300674
celso ramos,SC,-27.63320205167086,-51.337239601534826
centenario,RS,-27.76579257026367,-52.00371874091365
centenario,TO,-8.958467204057293,-47.33711355000809
centenario do sul,PR,-22.82118756931873,-51.594749272610336
centenário do sul,PR,-22.822912558149095,-51.59652612314578
central,BA,-11.136698466979883,-42.106664284671474
central de minas,MG,-18.7659231506212,-41.30243983466087
central de santa helena,MG,-18.276242309677663,-42.997849388042006
central do maranhao,MA,-2.1948150066912238,-44.82799173786903
centralina,MG,-18.585274922169962,-49.20061955483061
centro do guilherme,MA,-2.46755620509377,-45.87342285149244
centro novo do maranhao,MA,-2.182731091589331,-46.17464693976398
centro novo do maranhão,MA,-2.1529060947544627,-46.14489747101203
cerejeiras,RO,-13.19266482518763,-60.823111122927415
ceres,GO,-15.303639303509014,-49.60722003897494
cerqueira cesar,SP,-23.03428303546265,-49.16253214445097
cerqueira césar,SP,-23.032865582090537,-49.16107611670573
cerquilho,SP,-23.166261903785394,-47.746688703504226
cerrito,RS,-31.851459616119794,-52.809165309348714
cerro azul,PR,-24.828137537248153,-49.263724610399606
cerro branco,RS,-29.665982595946502,-52.944619125189234
cerro cora,RN,-6.044570927557558,-36.34963365998875
cerro corá,RN,-6.046662465546478,-36.34893869199896
cerro grande,RS,-27.608345624559224,-53.166188436745145
cerro grande do sul,RS,-30.5950876526286,-51.75234557238621
cerro largo,RS,-28.146638263140144,-54.737891661226996
cerro negro,SC,-27.796757499873838,-50.87310645895104
cesario lange,SP,-23.226418206532184,-47.954975318604525
cesário lange,SP,-23.2246987551511,-47.95566072580808
ceu azul,PR,-25.14670388072208,-53.849862217867184
cezarina,GO,-16.979258470150114,-49.77081598750628
cha de alegria,PE,-7.998261914144079,-35.21160652888707
cha grande,PE,-8.239826122375147,-35.4619495356618
cha preta,AL,-9.25672890896978,-36.297553015353174
chacara,MG,-21.672828112287625,-43.220161943778166
chale,MG,-20.045439401812278,-41.69087685460777
chalé,MG,-20.043033173037223,-41.69355144956095
chapada,RS,-28.061001781776675,-53.06614906485781
chapada da natividade,TO,-11.61781043385302,-47.75103782717146
chapada do norte,MG,-17.095485036819124,-42.53427732623978
chapada dos guimaraes,MT,-15.420503378565503,-55.72550495658795
chapada dos guimarães,MT,-15.415919057872351,-55.724751529698054
chapada gaucha,MG,-15.31023550786734,-45.61427845708092
chapada gaúcha,MG,-15.298975698361641,-45.62452193758812
chapadao do ceu,GO,-18.397778569223078,-52.66200588686546
chapadao do lageado,SC,-27.589140044912302,-49.54915653195186
chapadao do sul,MS,-18.79885091785448,-52.62968577169777
chapadinha,MA,-3.7407619665087135,-43.36051089473439
chapadão do céu,GO,-18.394346374607778,-52.666309426042474
chapadão do lageado,SC,-27.591347999999947,-49.55531749999996
chapadão do sul,MS,-18.795685840844268,-52.626511802490526
chapeco,SC,-27.096682268910648,-52.620976133715224
chapecó,SC,-27.096185969741732,-52.625193995731486
charqueada,SP,-22.511338452260038,-47.77588446279597
charqueadas,RS,-29.96270532877309,-51.618642688658596
charrua,RS,-27.95372179010726,-52.02551148985606
chaval,CE,-3.036271797499818,-41.2425001741348
chavantes,SP,-23.039678343494334,-49.70849675119676
chaveslandia,MG,-19.04329047203457,-50.48805214021181
chiador,MG,-22.05702012002341,-43.09008428366405
chiapetta,RS,-27.91880318858005,-53.940581538542354
chonim,MG,-18.978562324421873,-44.04679218493516
chopinzinho,PR,-25.854746637852458,-52.52992836467901
chorozinho,CE,-4.30979584870399,-38.492865173226576
chorrocho,BA,-8.947945817737466,-39.07692245466618
chorrochó,BA,-8.978551119519182,-39.09767808740854
chui,RS,-33.690246184773294,-53.46160679056916
chupinguaia,RO,-12.554058360685474,-60.90454041261205
chuvisca,RS,-30.74918915031097,-51.980897919355755
chuí,RS,-33.6891290484176,-53.456267397467585
chácara,MG,-21.694181553675648,-43.22032582660687
chã de alegria,PE,-7.995878641438448,-35.209787545021
chã grande,PE,-8.242670310796774,-35.45989218142657
chã preta,AL,-9.257274856621232,-36.29757991509285
cianorte,PR,-23.661548233399802,-52.61100936204498
cicero dantas,BA,-10.593016677890782,-38.38518647881569
cidade gaucha,PR,-23.382308468418294,-52.94056181099697
cidade gaúcha,PR,-23.38463582905094,-52.94283274846851
cidade ocidental,GO,-16.096685465717755,-47.9228136076309
cidelandia,MA,-5.173429220943391,-47.78618987724099
cidreira,RS,-30.181172662096813,-50.21367392192425
cipo,BA,-11.100413846142965,-38.516514070456566
cipolandia,MS,-20.126883258376388,-55.3891012991125
cipotanea,MG,-20.906383679478626,-43.36715239284449
cipotânea,MG,-20.90526811520288,-43.36157315544615
cipó,BA,-11.100652452258467,-38.51467502439647
ciriaco,RS,-28.343838265612323,-51.87462260801717
ciríaco,RS,-28.34232470577903,-51.87602253753121
cisneiros,MG,-21.440712113251724,-42.3600007095712
claraval,MG,-20.401546767101205,-47.28560867100957
claro dos pocoes,MG,-17.04037181614622,-44.20595585514116
claro dos poções,MG,-17.081945429134283,-44.20749588686254
claudia,MT,-11.50373156162008,-54.87558881032881
claudio,MG,-20.436207674234865,-44.76094608594906
claudio manuel,MG,-20.21334359818413,-43.19984080209576
clementina,SP,-21.56018491317655,-50.445800319817664
